{"type":"FeatureCollection","features":[{"type":"Feature","properties":{"DepAdmin":"Escola Estadual","NomeInsti":"Myriam Coeli","Nível":"Fundamental e Medio","Telefone":"Fone: 32327225","Endereco":"Rua dos Coroas, s/n","CEP":59138140,"Bairro":"Lagoa Azul","Zona":"Norte","Prédio":null,"Decreto_de":null,"Longitude":249135.917,"Latitude":9365416.037},"geometry":{"type":"Point","coordinates":[-35.26514133797183,-5.736601869729167]}},{"type":"Feature","properties":{"DepAdmin":"Escola Estadual","NomeInsti":"Elizabeth F. A. Guilhermino","Nível":"Fundamental, Medio e EJA","Telefone":null,"Endereco":"Rua dos Coroas","CEP":null,"Bairro":"Lagoa Azul","Zona":"Norte","Prédio":null,"Decreto_de":null,"Longitude":249101.976,"Latitude":9365354.695},"geometry":{"type":"Point","coordinates":[-35.26544982320406,-5.737155148368347]}},{"type":"Feature","properties":{"DepAdmin":"Escola Estadual","NomeInsti":"Paulo P. de Viveiros","Nível":"Fundamental e Medio","Telefone":null,"Endereco":"Rua do Pastoril","CEP":null,"Bairro":"Lagoa Azul","Zona":"Norte","Prédio":null,"Decreto_de":null,"Longitude":249578.525,"Latitude":9366051.691},"geometry":{"type":"Point","coordinates":[-35.261124353716504,-5.730871797666367]}},{"type":"Feature","properties":{"DepAdmin":"Escola Estadual","NomeInsti":"Prof. Crisan Siminéa","Nível":"Fundamental, Medio e EJA","Telefone":null,"Endereco":"Rua das Crendices","CEP":null,"Bairro":"Lagoa Azul","Zona":"Norte","Prédio":null,"Decreto_de":null,"Longitude":250106.189,"Latitude":9365635.071},"geometry":{"type":"Point","coordinates":[-35.2563772340143,-5.734656557765692]}},{"type":"Feature","properties":{"DepAdmin":"Escola Estadual","NomeInsti":"Alceu Amoroso Lima","Nível":"Fundamental e EJA","Telefone":null,"Endereco":"Rua do Baião, s/n","CEP":null,"Bairro":"Lagoa Azul","Zona":"Norte","Prédio":null,"Decreto_de":null,"Longitude":250278.807,"Latitude":9365810.575},"geometry":{"type":"Point","coordinates":[-35.25481319484102,-5.733076257713795]}},{"type":"Feature","properties":{"DepAdmin":"Escola Estadual","NomeInsti":"Luiz Wanderley","Nível":"Fundamental e Medio","Telefone":null,"Endereco":"RUA ITAPETINGA, 795","CEP":null,"Bairro":"Lagoa Azul","Zona":"Norte","Prédio":null,"Decreto_de":null,"Longitude":250743.163,"Latitude":9366111.663},"geometry":{"type":"Point","coordinates":[-35.25061190420217,-5.7303711034582]}},{"type":"Feature","properties":{"DepAdmin":"Escola Estadual","NomeInsti":"Aldo F. de Melo","Nível":"Fundamental e EJA","Telefone":null,"Endereco":"Avenida Guaratinguetá","CEP":null,"Bairro":"Lagoa Azul","Zona":"Norte","Prédio":null,"Decreto_de":null,"Longitude":250429.63,"Latitude":9366340.888},"geometry":{"type":"Point","coordinates":[-35.25343327130779,-5.728287927723118]}},{"type":"Feature","properties":{"DepAdmin":"Escola Estadual","NomeInsti":"Maria de Lourdes Camara Souto","Nível":"Fundamental","Telefone":null,"Endereco":"Praça Ipanema","CEP":null,"Bairro":"Lagoa Azul","Zona":"Norte","Prédio":null,"Decreto_de":null,"Longitude":250599.085,"Latitude":9366807.862},"geometry":{"type":"Point","coordinates":[-35.25188748462758,-5.724072789066458]}},{"type":"Feature","properties":{"DepAdmin":"Escola Estadual","NomeInsti":"Maria Nalva X. de Albuquerque","Nível":"Fundamental","Telefone":null,"Endereco":"Rua Historiador Capistrano de Abreu","CEP":null,"Bairro":"Pajuçara","Zona":"Norte","Prédio":null,"Decreto_de":null,"Longitude":251271.236,"Latitude":9366464.713},"geometry":{"type":"Point","coordinates":[-35.24583378945148,-5.727198452719249]}},{"type":"Feature","properties":{"DepAdmin":"Escola Estadual","NomeInsti":"Zila Mamede","Nível":"Fundamental, Medio e EJA","Telefone":null,"Endereco":"Rua Maracaí","CEP":null,"Bairro":"Pajuçara","Zona":"Norte","Prédio":null,"Decreto_de":null,"Longitude":251171.447,"Latitude":9366212.479},"geometry":{"type":"Point","coordinates":[-35.24674325135721,-5.72947495924714]}},{"type":"Feature","properties":{"DepAdmin":"Escola Estadual","NomeInsti":"Josino Macedo","Nível":"Fundamental, Medio e EJA","Telefone":null,"Endereco":"Rua Limoeiro do Norte","CEP":null,"Bairro":"Potengi","Zona":"Norte","Prédio":null,"Decreto_de":null,"Longitude":249642.921,"Latitude":9362683.623},"geometry":{"type":"Point","coordinates":[-35.260663341784806,-5.761319127024353]}},{"type":"Feature","properties":{"DepAdmin":"Escola Estadual","NomeInsti":"Peregrino Junior","Nível":"Fundamental, Medio e EJA","Telefone":null,"Endereco":"Rua Rio do Sul","CEP":null,"Bairro":"Potengi","Zona":"Norte","Prédio":null,"Decreto_de":null,"Longitude":250220.621,"Latitude":9363265.707},"geometry":{"type":"Point","coordinates":[-35.255428830788034,-5.75607813450294]}},{"type":"Feature","properties":{"DepAdmin":"Escola Estadual","NomeInsti":"Walter D. Pereira","Nível":"Fundamental, Medio e EJA","Telefone":null,"Endereco":"Avenida Blumenal","CEP":null,"Bairro":"Potengi","Zona":"Norte","Prédio":null,"Decreto_de":null,"Longitude":249851.457,"Latitude":9363728.497},"geometry":{"type":"Point","coordinates":[-35.25874399930279,-5.751881636667305]}},{"type":"Feature","properties":{"DepAdmin":"Escola Estadual","NomeInsti":"Romulo Wanderley","Nível":"Fundamental","Telefone":null,"Endereco":"Rua Piratinga","CEP":null,"Bairro":"Potengi","Zona":"Norte","Prédio":null,"Decreto_de":null,"Longitude":250903.676,"Latitude":9363244.622},"geometry":{"type":"Point","coordinates":[-35.249265039126655,-5.756293092538558]}},{"type":"Feature","properties":{"DepAdmin":"Escola Estadual","NomeInsti":"Varela Barca","Nível":"Medio","Telefone":null,"Endereco":"Rua Serra do Botucatu","CEP":null,"Bairro":"Potengi","Zona":"Norte","Prédio":null,"Decreto_de":null,"Longitude":250521.295,"Latitude":9363901.689},"geometry":{"type":"Point","coordinates":[-35.25269263701882,-5.750339995796542]}},{"type":"Feature","properties":{"DepAdmin":"Escola Estadual","NomeInsti":"Gal. Dioscoro Vale","Nível":"Fundamental, Medio e EJA","Telefone":null,"Endereco":"Rua Angra dos Reis","CEP":null,"Bairro":"Potengi","Zona":"Norte","Prédio":null,"Decreto_de":null,"Longitude":250590.126,"Latitude":9364479.646},"geometry":{"type":"Point","coordinates":[-35.25205090118564,-5.745118078391188]}},{"type":"Feature","properties":{"DepAdmin":"Escola Estadual","NomeInsti":"15 de outubro","Nível":"Fundamental e EJA","Telefone":null,"Endereco":"Avenida das Fronteiras, 3142","CEP":null,"Bairro":"Potengi","Zona":"Norte","Prédio":null,"Decreto_de":null,"Longitude":250452.136,"Latitude":9365061.471},"geometry":{"type":"Point","coordinates":[-35.253275552851726,-5.739853838716248]}},{"type":"Feature","properties":{"DepAdmin":"Escola Estadual","NomeInsti":"Antônio Fagundes","Nível":"Fundamental e EJA","Telefone":null,"Endereco":"Avenida das Fronteiras, 2295","CEP":null,"Bairro":"Potengi","Zona":"Norte","Prédio":null,"Decreto_de":null,"Longitude":249641.909,"Latitude":9364371.5},"geometry":{"type":"Point","coordinates":[-35.26061218618066,-5.746061839472047]}},{"type":"Feature","properties":{"DepAdmin":"Escola Estadual","NomeInsti":"José Adelino Dantas","Nível":"Fundamental, Medio e EJA","Telefone":null,"Endereco":"Rua Bragantina","CEP":null,"Bairro":"Potengi","Zona":"Norte","Prédio":null,"Decreto_de":null,"Longitude":251407.396,"Latitude":9364299.035},"geometry":{"type":"Point","coordinates":[-35.24468158395996,-5.746779734120577]}},{"type":"Feature","properties":{"DepAdmin":"Escola Estadual","NomeInsti":"João Maria","Nível":"Fundamental","Telefone":null,"Endereco":"Largo do Eucalipto","CEP":null,"Bairro":"Potengi","Zona":"Norte","Prédio":null,"Decreto_de":null,"Longitude":251987.268,"Latitude":9363363.694},"geometry":{"type":"Point","coordinates":[-35.23948139011273,-5.7552552469411]}},{"type":"Feature","properties":{"DepAdmin":"Escola Estadual","NomeInsti":"Centro Educacional Alferes Tiradentes","Nível":"Fundamental","Telefone":null,"Endereco":"Rua Ubaituba","CEP":null,"Bairro":"Potengi","Zona":"Norte","Prédio":null,"Decreto_de":null,"Longitude":251261.592,"Latitude":9364584.262},"geometry":{"type":"Point","coordinates":[-35.24598733833296,-5.744196274105359]}},{"type":"Feature","properties":{"DepAdmin":"Escola Estadual","NomeInsti":"Ana Júlia C. de Mousinho","Nível":"Medio","Telefone":null,"Endereco":"Rua Estrela do Leste,413","CEP":null,"Bairro":"N. Srª. da Apresentação","Zona":"Norte","Prédio":null,"Decreto_de":null,"Longitude":247343.764,"Latitude":9362487.174},"geometry":{"type":"Point","coordinates":[-35.28142015999005,-5.763012126260658]}},{"type":"Feature","properties":{"DepAdmin":"Escola Estadual","NomeInsti":"Leonor Lima","Nível":"Fundamental e EJA","Telefone":null,"Endereco":"Rua Francisco Ivo","CEP":null,"Bairro":"Redinha","Zona":"Norte","Prédio":null,"Decreto_de":null,"Longitude":256008.06,"Latitude":9363724.787},"geometry":{"type":"Point","coordinates":[-35.203180605231566,-5.752132466988094]}},{"type":"Feature","properties":{"DepAdmin":"Escola Estadual","NomeInsti":"Dulce Wanderley","Nível":"Fundamental e Medio","Telefone":null,"Endereco":"Rua Cícero Bucha","CEP":null,"Bairro":"Redinha","Zona":"Norte","Prédio":null,"Decreto_de":null,"Longitude":255617.057,"Latitude":9364446.974},"geometry":{"type":"Point","coordinates":[-35.20668432452435,-5.745590508730183]}},{"type":"Feature","properties":{"DepAdmin":"Escola Estadual","NomeInsti":"Potiguassu","Nível":"Fundamental e EJA","Telefone":null,"Endereco":"Praça São Vicente de Paula","CEP":null,"Bairro":"Igapó","Zona":"Norte","Prédio":null,"Decreto_de":null,"Longitude":250749.169,"Latitude":9361111.601},"geometry":{"type":"Point","coordinates":[-35.25073547790714,-5.775568752276032]}},{"type":"Feature","properties":{"DepAdmin":"Escola Estadual","NomeInsti":"Vigário Bartolomeu","Nível":"Fundamental e EJA","Telefone":null,"Endereco":"Avenida Antônio Basílio","CEP":null,"Bairro":"Lagoa Nova","Zona":"Sul","Prédio":null,"Decreto_de":null,"Longitude":256300.798,"Latitude":9356474.511},"geometry":{"type":"Point","coordinates":[-35.20079205310704,-5.817682803629211]}},{"type":"Feature","properties":{"DepAdmin":"Escola Estadual","NomeInsti":"Conego Monte","Nível":"Fundamental","Telefone":"TEL","Endereco":"AV BERNARDO VIEIRA, 152","CEP":null,"Bairro":"Lagoa Nova","Zona":"Sul","Prédio":null,"Decreto_de":null,"Longitude":254750.275,"Latitude":9357362.061},"geometry":{"type":"Point","coordinates":[-35.21475602055904,-5.809604949715584]}},{"type":"Feature","properties":{"DepAdmin":"Escola Estadual","NomeInsti":"Nestor Lima","Nível":"Fundamental e Medio","Telefone":null,"Endereco":"Rua São José","CEP":null,"Bairro":"Lagoa Seca","Zona":"Leste","Prédio":null,"Decreto_de":null,"Longitude":255080.025,"Latitude":9357114.011},"geometry":{"type":"Point","coordinates":[-35.21178842972373,-5.81185888523439]}},{"type":"Feature","properties":{"DepAdmin":"Escola Estadual","NomeInsti":"Castro Alves","Nível":"Fundamental e Medio","Telefone":null,"Endereco":"Avenida Xavier da Silveira, 1196","CEP":null,"Bairro":"Lagoa Nova","Zona":"Sul","Prédio":null,"Decreto_de":null,"Longitude":256103.42,"Latitude":9355959.128},"geometry":{"type":"Point","coordinates":[-35.20259177737983,-5.822334731624018]}},{"type":"Feature","properties":{"DepAdmin":"Escola Estadual","NomeInsti":"Pres. Kennedy","Nível":"Fundamental","Telefone":null,"Endereco":"Rua Jaguarari","CEP":null,"Bairro":"Lagoa Nova","Zona":"Sul","Prédio":null,"Decreto_de":null,"Longitude":254303.394,"Latitude":9356420.14},"geometry":{"type":"Point","coordinates":[-35.218822946640415,-5.818103664003268]}},{"type":"Feature","properties":{"DepAdmin":"Escola Estadual","NomeInsti":"Edgar Barbosa","Nível":"Medio","Telefone":null,"Endereco":"Avenida Miguel Castro","CEP":null,"Bairro":"Lagoa Nova","Zona":"Sul","Prédio":null,"Decreto_de":null,"Longitude":254242.72,"Latitude":9356323.899},"geometry":{"type":"Point","coordinates":[-35.219374008430975,-5.818971488267486]}},{"type":"Feature","properties":{"DepAdmin":"Escola Estadual","NomeInsti":"Manoel Villaça","Nível":"Fundamental","Telefone":null,"Endereco":"Avenida Miguel Castro","CEP":null,"Bairro":"Lagoa Nova","Zona":"Sul","Prédio":null,"Decreto_de":null,"Longitude":254108.688,"Latitude":9356393.772},"geometry":{"type":"Point","coordinates":[-35.22058132835883,-5.818335109446555]}},{"type":"Feature","properties":{"DepAdmin":"Escola Estadual","NomeInsti":"Regulo Tinoco","Nível":"Fundamental, Medio e EJA","Telefone":null,"Endereco":"Avenida Lima e Silva","CEP":null,"Bairro":"Lagoa Nova","Zona":"Sul","Prédio":null,"Decreto_de":null,"Longitude":254855.258,"Latitude":9355783.908},"geometry":{"type":"Point","coordinates":[-35.21386424232052,-5.823874511037218]}},{"type":"Feature","properties":{"DepAdmin":"Escola Estadual","NomeInsti":"Joaquim Torres","Nível":"Fundamental","Telefone":null,"Endereco":"Rua dos Potiguares","CEP":null,"Bairro":"Lagoa Nova","Zona":"Sul","Prédio":null,"Decreto_de":null,"Longitude":253464.208,"Latitude":9355886.172},"geometry":{"type":"Point","coordinates":[-35.226416554703526,-5.822900631277501]}},{"type":"Feature","properties":{"DepAdmin":"Escola Estadual","NomeInsti":"Jorge Fernandes","Nível":"Fundamental e EJA","Telefone":null,"Endereco":"Rua do Cristal de Rocha","CEP":null,"Bairro":"Lagoa Nova","Zona":"Sul","Prédio":null,"Decreto_de":null,"Longitude":255455.002,"Latitude":9355279.372},"geometry":{"type":"Point","coordinates":[-35.20846861258374,-5.828456559474537]}},{"type":"Feature","properties":{"DepAdmin":"Escola Estadual","NomeInsti":"Luis Camara Cascudo","Nível":"Fundamental","Telefone":null,"Endereco":"Tv. Dos Potiguares","CEP":null,"Bairro":"Candelária","Zona":"Sul","Prédio":null,"Decreto_de":null,"Longitude":253134.651,"Latitude":9354675.968},"geometry":{"type":"Point","coordinates":[-35.229434377344965,-5.833828493328741]}},{"type":"Feature","properties":{"DepAdmin":"Escola Estadual","NomeInsti":"Luis Antonio","Nível":"Fundamental e Medio","Telefone":null,"Endereco":"Rua Alamanda, 300","CEP":null,"Bairro":"Candelária","Zona":"Sul","Prédio":null,"Decreto_de":null,"Longitude":254145.268,"Latitude":9354367.572},"geometry":{"type":"Point","coordinates":[-35.220323148432406,-5.836652323729823]}},{"type":"Feature","properties":{"DepAdmin":"Escola Estadual","NomeInsti":"Walfredo Gurgel","Nível":"Fundamental, Medio e EJA","Telefone":null,"Endereco":"Rua Bento Gonçalves","CEP":null,"Bairro":"Candelária","Zona":"Sul","Prédio":null,"Decreto_de":null,"Longitude":254426.815,"Latitude":9354102.033},"geometry":{"type":"Point","coordinates":[-35.217791223552894,-5.839062703611728]}},{"type":"Feature","properties":{"DepAdmin":"Escola Estadual","NomeInsti":"Floriano Cavalcanti","Nível":"Fundamental, Medio e EJA","Telefone":null,"Endereco":"RUA DOS VERBENAS, 690","CEP":null,"Bairro":"Capim Macio","Zona":"Sul","Prédio":null,"Decreto_de":null,"Longitude":255666.889,"Latitude":9353844.933},"geometry":{"type":"Point","coordinates":[-35.20660675599162,-5.841430850349365]}},{"type":"Feature","properties":{"DepAdmin":"Escola Estadual","NomeInsti":"Vale do Pitimbu","Nível":"Fundamental","Telefone":null,"Endereco":"Rua Juscelino Kubitschek","CEP":null,"Bairro":"Pitimbu","Zona":"Sul","Prédio":null,"Decreto_de":null,"Longitude":251922.154,"Latitude":9353255.246},"geometry":{"type":"Point","coordinates":[-35.240429791369834,-5.846627501496538]}},{"type":"Feature","properties":{"DepAdmin":"Escola Estadual","NomeInsti":"Antônio Pinto de Medeiros","Nível":"Fundamental e Medio","Telefone":null,"Endereco":"Rua Rio Paranapanema","CEP":null,"Bairro":"Pitimbu","Zona":"Sul","Prédio":null,"Decreto_de":null,"Longitude":251891.307,"Latitude":9352194.038},"geometry":{"type":"Point","coordinates":[-35.24074644648441,-5.856219082773247]}},{"type":"Feature","properties":{"DepAdmin":"Escola Estadual","NomeInsti":"Djalma A. Marinho","Nível":"Fundamental e EJA","Telefone":"TEL","Endereco":"PRACA SAO FRANCISCO DE ASSIS, 562","CEP":null,"Bairro":"Pitimbu","Zona":"Sul","Prédio":null,"Decreto_de":null,"Longitude":252613.186,"Latitude":9350782.245},"geometry":{"type":"Point","coordinates":[-35.23428108613172,-5.869006918098971]}},{"type":"Feature","properties":{"DepAdmin":"Escola Estadual","NomeInsti":"Berilo Wanderley","Nível":"Fundamental e Medio","Telefone":null,"Endereco":"Rua Governador Valadares","CEP":null,"Bairro":"Neópolis","Zona":"Sul","Prédio":null,"Decreto_de":null,"Longitude":255680.998,"Latitude":9350770.849},"geometry":{"type":"Point","coordinates":[-35.20658847333393,-5.869219890446885]}},{"type":"Feature","properties":{"DepAdmin":"Escola Estadual","NomeInsti":"Lourdes Guilherme","Nível":"Fundamental, Medio e EJA","Telefone":null,"Endereco":"Avenida São Miguel dos Caribes","CEP":null,"Bairro":"Neópolis","Zona":"Sul","Prédio":null,"Decreto_de":null,"Longitude":255613.569,"Latitude":9351050.757},"geometry":{"type":"Point","coordinates":[-35.20718720042751,-5.866687230467759]}},{"type":"Feature","properties":{"DepAdmin":"Escola Estadual","NomeInsti":"Ferreira Itajuba","Nível":"Fundamental e Medio","Telefone":null,"Endereco":"Rua Roraima","CEP":null,"Bairro":"Neópolis","Zona":"Sul","Prédio":null,"Decreto_de":null,"Longitude":255293.768,"Latitude":9352296.408},"geometry":{"type":"Point","coordinates":[-35.210029728560485,-5.855415650068247]}},{"type":"Feature","properties":{"DepAdmin":"Escola Estadual","NomeInsti":"Maia Neto","Nível":"Fundamental","Telefone":null,"Endereco":"Rua Paraná","CEP":null,"Bairro":"Neópolis","Zona":"Sul","Prédio":null,"Decreto_de":null,"Longitude":255610.759,"Latitude":9352032.312},"geometry":{"type":"Point","coordinates":[-35.20717769074278,-5.857814252749141]}},{"type":"Feature","properties":{"DepAdmin":"Escola Estadual","NomeInsti":"José Fernandes Machado","Nível":"Fundamental, Medio e EJA","Telefone":null,"Endereco":"Avenida Praia de Muriú","CEP":null,"Bairro":"Ponta Negra","Zona":"Sul","Prédio":null,"Decreto_de":null,"Longitude":257588.027,"Latitude":9350340.576},"geometry":{"type":"Point","coordinates":[-35.18938872536771,-5.873177094479151]}},{"type":"Feature","properties":{"DepAdmin":"Escola Estadual","NomeInsti":"Cafe Filho","Nível":"Fundamental, Medio e EJA","Telefone":null,"Endereco":"Rua Décio Fonseca, 98","CEP":null,"Bairro":"Rocas","Zona":"Leste","Prédio":null,"Decreto_de":null,"Longitude":256668.654,"Latitude":9361514.023},"geometry":{"type":"Point","coordinates":[-35.19729545886245,-5.772140112892531]}},{"type":"Feature","properties":{"DepAdmin":"Escola Estadual","NomeInsti":"Josefa Sampaio","Nível":"Fundamental, Medio e EJA","Telefone":null,"Endereco":"Rua Professor José Melquiades, 406","CEP":null,"Bairro":"Santos Reis","Zona":"Leste","Prédio":null,"Decreto_de":null,"Longitude":256287.077,"Latitude":9362044.331},"geometry":{"type":"Point","coordinates":[-35.200720910900905,-5.767332980370161]}},{"type":"Feature","properties":{"DepAdmin":"Escola Estadual","NomeInsti":"Padre Monte","Nível":"Fundamental, Medio e EJA","Telefone":null,"Endereco":"Rua Teotônio Freire","CEP":null,"Bairro":"Ribeira","Zona":"Leste","Prédio":null,"Decreto_de":null,"Longitude":256470.764,"Latitude":9360895.245},"geometry":{"type":"Point","coordinates":[-35.19910310163121,-5.77772676306181]}},{"type":"Feature","properties":{"DepAdmin":"Escola Estadual","NomeInsti":"Winston Churchill","Nível":"Medio","Telefone":null,"Endereco":"Avenida Rio Branco","CEP":null,"Bairro":"Cidade Alta","Zona":"Leste","Prédio":null,"Decreto_de":null,"Longitude":255688.824,"Latitude":9360241.093},"geometry":{"type":"Point","coordinates":[-35.2061834965742,-5.783612697033287]}},{"type":"Feature","properties":{"DepAdmin":"Escola Estadual","NomeInsti":"Augusto Severo","Nível":"Fundamental e EJA","Telefone":null,"Endereco":"Rua Mipibu, 449","CEP":null,"Bairro":"Petrópolis","Zona":"Leste","Prédio":null,"Decreto_de":null,"Longitude":256242.826,"Latitude":9360019.128},"geometry":{"type":"Point","coordinates":[-35.201191007818615,-5.785638608576056]}},{"type":"Feature","properties":{"DepAdmin":"Escola Estadual","NomeInsti":"Anisio Teixeira","Nível":"Medio","Telefone":null,"Endereco":"Rua Trairi, 480","CEP":null,"Bairro":"Petrópolis","Zona":"Leste","Prédio":null,"Decreto_de":null,"Longitude":256294.611,"Latitude":9360063.708},"geometry":{"type":"Point","coordinates":[-35.20072205183419,-5.785237432956746]}},{"type":"Feature","properties":{"DepAdmin":"Escola Estadual","NomeInsti":"Atheneu Norte Riograndense","Nível":"Medio","Telefone":null,"Endereco":"Avenida Campos Sales, 393","CEP":null,"Bairro":"Petrópolis","Zona":"Leste","Prédio":null,"Decreto_de":null,"Longitude":256584.879,"Latitude":9360163.787},"geometry":{"type":"Point","coordinates":[-35.198098668933156,-5.784342911391433]}},{"type":"Feature","properties":{"DepAdmin":"Escola Estadual","NomeInsti":"Alberto Torres","Nível":"Fundamental","Telefone":null,"Endereco":"Rua Desembargador Dionisio Filgueira","CEP":null,"Bairro":"Petrópolis","Zona":"Leste","Prédio":null,"Decreto_de":null,"Longitude":256845.224,"Latitude":9360172.508},"geometry":{"type":"Point","coordinates":[-35.19574855930613,-5.784273167442881]}},{"type":"Feature","properties":{"DepAdmin":"Escola Estadual","NomeInsti":"CEJA Felipe Guerra","Nível":"EJA","Telefone":null,"Endereco":"Rua Trairi, 406","CEP":null,"Bairro":"Petrópolis","Zona":"Leste","Prédio":null,"Decreto_de":null,"Longitude":256199.677,"Latitude":9360104.514},"geometry":{"type":"Point","coordinates":[-35.20157747056855,-5.784865233959255]}},{"type":"Feature","properties":{"DepAdmin":"Escola Estadual","NomeInsti":"Dinarte Mariz","Nível":"Fundamental, Medio e EJA","Telefone":null,"Endereco":"Rua Camaragibe","CEP":null,"Bairro":"Mãe Luiza","Zona":"Leste","Prédio":null,"Decreto_de":null,"Longitude":257946.582,"Latitude":9358823.464},"geometry":{"type":"Point","coordinates":[-35.18585482407461,-5.796506592988568]}},{"type":"Feature","properties":{"DepAdmin":"Escola Estadual","NomeInsti":"Stella Gonçalves","Nível":"Fundamental","Telefone":null,"Endereco":"Rua Ferreira Nobre","CEP":null,"Bairro":"Alecrim","Zona":"Leste","Prédio":null,"Decreto_de":null,"Longitude":253849.037,"Latitude":9359074.6},"geometry":{"type":"Point","coordinates":[-35.222829953931665,-5.794092442208685]}},{"type":"Feature","properties":{"DepAdmin":"Escola Estadual","NomeInsti":"Inst. Padre Miguelinho","Nível":"Medio","Telefone":null,"Endereco":"Rua Fonseca e Silva","CEP":null,"Bairro":"Alecrim","Zona":"Leste","Prédio":null,"Decreto_de":null,"Longitude":254775.068,"Latitude":9359137.101},"geometry":{"type":"Point","coordinates":[-35.21446960685164,-5.79356020193262]}},{"type":"Feature","properties":{"DepAdmin":"Escola Estadual","NomeInsti":"Newton Braga Faria","Nível":"Fundamental","Telefone":null,"Endereco":"Alameda Curupati","CEP":null,"Bairro":"Alecrim","Zona":"Leste","Prédio":null,"Decreto_de":null,"Longitude":255014.766,"Latitude":9358989.109},"geometry":{"type":"Point","coordinates":[-35.21231134999986,-5.794906441625463]}},{"type":"Feature","properties":{"DepAdmin":"Escola Estadual","NomeInsti":"Joao Tiburcio","Nível":"Fundamental e EJA","Telefone":null,"Endereco":"Rua Presidente Bandeira","CEP":null,"Bairro":"Alecrim","Zona":"Leste","Prédio":null,"Decreto_de":null,"Longitude":254444.591,"Latitude":9358640.537},"geometry":{"type":"Point","coordinates":[-35.21746995111635,-5.798037256088873]}},{"type":"Feature","properties":{"DepAdmin":"Escola Estadual","NomeInsti":"Instituto Ary Parreiras","Nível":"Fundamental","Telefone":"TEL","Endereco":"Praça ALMIRANTE BARROSO, 1024","CEP":null,"Bairro":"Alecrim","Zona":"Leste","Prédio":null,"Decreto_de":null,"Longitude":254222.315,"Latitude":9358401.137},"geometry":{"type":"Point","coordinates":[-35.2194846376433,-5.800193468227024]}},{"type":"Feature","properties":{"DepAdmin":"Escola Estadual","NomeInsti":"Tiradentes","Nível":"Fundamental e EJA","Telefone":null,"Endereco":"Rua Des. Régulo Tinôco","CEP":null,"Bairro":"Barro Vermelho","Zona":"Leste","Prédio":null,"Decreto_de":null,"Longitude":255419.66,"Latitude":9358085.436},"geometry":{"type":"Point","coordinates":[-35.208688635240925,-5.803089572136403]}},{"type":"Feature","properties":{"DepAdmin":"Escola Estadual","NomeInsti":"Jerônimo Gueiros","Nível":"Fundamental e Medio","Telefone":null,"Endereco":"Rua Antônio Melo","CEP":null,"Bairro":"Barro Vermelho","Zona":"Leste","Prédio":null,"Decreto_de":null,"Longitude":255268.49,"Latitude":9358684.02},"geometry":{"type":"Point","coordinates":[-35.21003201874528,-5.797673274517493]}},{"type":"Feature","properties":{"DepAdmin":"Escola Estadual","NomeInsti":"Ambulatório Padre João Maria","Nível":"Fundamental","Telefone":null,"Endereco":"Avenida Rui Barbosa, 20","CEP":null,"Bairro":"Lagoa Nova","Zona":"Sul","Prédio":null,"Decreto_de":null,"Longitude":256177.043,"Latitude":9356929.118},"geometry":{"type":"Point","coordinates":[-35.20189310575333,-5.813568947282806]}},{"type":"Feature","properties":{"DepAdmin":"Escola Estadual","NomeInsti":"Gal. Antônio V. Santos Rocha","Nível":"Fundamental","Telefone":null,"Endereco":"Rua Ten. Cerqueira","CEP":null,"Bairro":"Tirol","Zona":"Leste","Prédio":null,"Decreto_de":null,"Longitude":256827.148,"Latitude":9357342.602},"geometry":{"type":"Point","coordinates":[-35.196010635020905,-5.809854038902881]}},{"type":"Feature","properties":{"DepAdmin":"Escola Estadual","NomeInsti":"Sebastião Fernandes de Oliveira","Nível":"Fundamental e Medio","Telefone":null,"Endereco":"Rua Alberto Maranhão","CEP":null,"Bairro":"Tirol","Zona":"Leste","Prédio":null,"Decreto_de":null,"Longitude":255891.866,"Latitude":9358720.401},"geometry":{"type":"Point","coordinates":[-35.20440420777227,-5.797366343324454]}},{"type":"Feature","properties":{"DepAdmin":"Escola Estadual","NomeInsti":"Manoel Dantas","Nível":"Fundamental","Telefone":null,"Endereco":"Rua Alberto Maranhão","CEP":null,"Bairro":"Tirol","Zona":"Leste","Prédio":null,"Decreto_de":null,"Longitude":255928.934,"Latitude":9358710.087},"geometry":{"type":"Point","coordinates":[-35.204070004726844,-5.797460884025398]}},{"type":"Feature","properties":{"DepAdmin":"Escola Estadual","NomeInsti":"Mascarenhas Homem","Nível":"Fundamental, Medio e EJA","Telefone":null,"Endereco":"Avenida Prudente de Morais","CEP":null,"Bairro":"Lagoa Seca","Zona":"Leste","Prédio":null,"Decreto_de":null,"Longitude":255403.616,"Latitude":9357663.748},"geometry":{"type":"Point","coordinates":[-35.208848295014505,-5.806900902702845]}},{"type":"Feature","properties":{"DepAdmin":"Escola Estadual","NomeInsti":"Graciliano Lordao","Nível":"Fundamental","Telefone":null,"Endereco":"Rua dos Pegas","CEP":null,"Bairro":"Quintas","Zona":"Oeste","Prédio":null,"Decreto_de":null,"Longitude":253033.302,"Latitude":9358255.651},"geometry":{"type":"Point","coordinates":[-35.23022163593969,-5.801466384101433]}},{"type":"Feature","properties":{"DepAdmin":"Escola Estadual","NomeInsti":"Maria Lídia","Nível":"Fundamental e EJA","Telefone":"TEL","Endereco":"Rua Baraúna, 888","CEP":null,"Bairro":"Quintas","Zona":"Oeste","Prédio":null,"Decreto_de":null,"Longitude":253393.379,"Latitude":9358233.756},"geometry":{"type":"Point","coordinates":[-35.22697241737013,-5.801677108183897]}},{"type":"Feature","properties":{"DepAdmin":"Escola Estadual","NomeInsti":"Maria Montezuma","Nível":"Fundamental e EJA","Telefone":null,"Endereco":"Tv. Manoel Andrade","CEP":null,"Bairro":"Quintas","Zona":"Oeste","Prédio":null,"Decreto_de":null,"Longitude":252390.373,"Latitude":9358272.19},"geometry":{"type":"Point","coordinates":[-35.236023989963755,-5.801293971886238]}},{"type":"Feature","properties":{"DepAdmin":"Escola Estadual","NomeInsti":"Felizardo Moura","Nível":"Fundamental e Medio","Telefone":null,"Endereco":"Rua Dr. Mário Negócio","CEP":null,"Bairro":"Quintas","Zona":"Oeste","Prédio":null,"Decreto_de":null,"Longitude":252488.011,"Latitude":9358685.576},"geometry":{"type":"Point","coordinates":[-35.235128015354306,-5.797560672898985]}},{"type":"Feature","properties":{"DepAdmin":"Escola Estadual","NomeInsti":"Theodulo Camara","Nível":"Fundamental e EJA","Telefone":null,"Endereco":"Rua São Geraldo","CEP":null,"Bairro":"Quintas","Zona":"Oeste","Prédio":null,"Decreto_de":null,"Longitude":252875.04,"Latitude":9358526.423},"geometry":{"type":"Point","coordinates":[-35.23164044747924,-5.799013117096694]}},{"type":"Feature","properties":{"DepAdmin":"Escola Estadual","NomeInsti":"Ivo Cavalcanti","Nível":"Medio","Telefone":null,"Endereco":"Avenida Coronel Estevam","CEP":null,"Bairro":"Dix-Sept Rosado","Zona":"Oeste","Prédio":null,"Decreto_de":null,"Longitude":253339.293,"Latitude":9357823.559},"geometry":{"type":"Point","coordinates":[-35.227475151253486,-5.80538316409061]}},{"type":"Feature","properties":{"DepAdmin":"Escola Estadual","NomeInsti":"Ambulatório Matias Moreira","Nível":"Fundamental","Telefone":null,"Endereco":"Rua Profª. Josefa Botelho, 1275","CEP":null,"Bairro":"Dix-Sept Rosado","Zona":"Oeste","Prédio":null,"Decreto_de":null,"Longitude":253617.286,"Latitude":9356990.656},"geometry":{"type":"Point","coordinates":[-35.22499557635894,-5.812922083505874]}},{"type":"Feature","properties":{"DepAdmin":"Escola Estadual","NomeInsti":"Lia Campos","Nível":"EJA","Telefone":null,"Endereco":"Av. Coronel Estevam","CEP":null,"Bairro":"Dix-Sept Rosado","Zona":"Oeste","Prédio":null,"Decreto_de":null,"Longitude":253298.221,"Latitude":9357743.915},"geometry":{"type":"Point","coordinates":[-35.22784869197957,-5.806101643040473]}},{"type":"Feature","properties":{"DepAdmin":"Escola Estadual","NomeInsti":"Luis Soares","Nível":"Fundamental","Telefone":null,"Endereco":"Av. Coronel Estevam","CEP":null,"Bairro":"Dix-Sept Rosado","Zona":"Oeste","Prédio":null,"Decreto_de":null,"Longitude":253267.489,"Latitude":9357668.959},"geometry":{"type":"Point","coordinates":[-35.228128740385934,-5.806778118754136]}},{"type":"Feature","properties":{"DepAdmin":"Escola Estadual","NomeInsti":"Jean Mermoz","Nível":"Fundamental, Medio e EJA","Telefone":null,"Endereco":"Rua Barão de Mauá","CEP":null,"Bairro":"Bom Pastor","Zona":"Oeste","Prédio":null,"Decreto_de":null,"Longitude":251888.623,"Latitude":9356573.708},"geometry":{"type":"Point","coordinates":[-35.240613379155036,-5.816629351270364]}},{"type":"Feature","properties":{"DepAdmin":"Escola Estadual","NomeInsti":"Maria Ilka de Moura","Nível":"Fundamental","Telefone":null,"Endereco":"Rua Dr. Manoel Miranda","CEP":null,"Bairro":"Bom Pastor","Zona":"Oeste","Prédio":null,"Decreto_de":null,"Longitude":252354.266,"Latitude":9357521.325},"geometry":{"type":"Point","coordinates":[-35.236376652057466,-5.808080089098956]}},{"type":"Feature","properties":{"DepAdmin":"Escola Estadual","NomeInsti":"Judith Bezerra de Melo","Nível":"Fundamental e Medio","Telefone":null,"Endereco":"Av. Jerônimo Câmara","CEP":null,"Bairro":"N. Sra. de Nazaré","Zona":"Oeste","Prédio":null,"Decreto_de":null,"Longitude":253083.062,"Latitude":9356156.201},"geometry":{"type":"Point","coordinates":[-35.22984721275659,-5.820446106751022]}},{"type":"Feature","properties":{"DepAdmin":"Escola Estadual","NomeInsti":"Soldado Luiz Gonzaga","Nível":"Fundamental, Medio e EJA","Telefone":"TEL","Endereco":"Av. Amintas Barros, 1198","CEP":null,"Bairro":"N. Sra. de Nazaré","Zona":"Oeste","Prédio":null,"Decreto_de":null,"Longitude":253033.167,"Latitude":9356973.569},"geometry":{"type":"Point","coordinates":[-35.2302684515819,-5.813055742096223]}},{"type":"Feature","properties":{"DepAdmin":"Escola Estadual","NomeInsti":"Euripedes Barsanulfo","Nível":"Fundamental","Telefone":null,"Endereco":"Rua São Benedito","CEP":null,"Bairro":"Felipe Camarão","Zona":"Oeste","Prédio":null,"Decreto_de":null,"Longitude":251107.631,"Latitude":9355299.396},"geometry":{"type":"Point","coordinates":[-35.24770838462433,-5.828120287428925]}},{"type":"Feature","properties":{"DepAdmin":"Escola Estadual","NomeInsti":"Maria Luiza Alves Costa","Nível":"Fundamental e EJA","Telefone":null,"Endereco":"Rua Nossa Srª. do Rosário","CEP":null,"Bairro":"Felipe Camarão","Zona":"Oeste","Prédio":null,"Decreto_de":null,"Longitude":250448.557,"Latitude":9355731.984},"geometry":{"type":"Point","coordinates":[-35.253641668283144,-5.824186207316397]}},{"type":"Feature","properties":{"DepAdmin":"Escola Estadual","NomeInsti":"Maria Queiroz","Nível":"Fundamental e Medio","Telefone":null,"Endereco":"Rua da Tamarineira","CEP":null,"Bairro":"Felipe Camarão","Zona":"Oeste","Prédio":null,"Decreto_de":null,"Longitude":250355.846,"Latitude":9355827.667},"geometry":{"type":"Point","coordinates":[-35.254475033744306,-5.82331795329848]}},{"type":"Feature","properties":{"DepAdmin":"Escola Estadual","NomeInsti":"12 de Outubro","Nível":"Fundamental","Telefone":null,"Endereco":"Tv. São Domingos, 105","CEP":null,"Bairro":"Felipe Camarão","Zona":"Oeste","Prédio":null,"Decreto_de":null,"Longitude":250891.536,"Latitude":9356703.514},"geometry":{"type":"Point","coordinates":[-35.24960838396724,-5.815420169311852]}},{"type":"Feature","properties":{"DepAdmin":"Escola Estadual","NomeInsti":"Belém Câmara","Nível":"Fundamental","Telefone":null,"Endereco":"Rua Lajes","CEP":null,"Bairro":"Cidade da Esperança","Zona":"Oeste","Prédio":null,"Decreto_de":null,"Longitude":251980.177,"Latitude":9355514.71},"geometry":{"type":"Point","coordinates":[-35.23982492724974,-5.826205355734521]}},{"type":"Feature","properties":{"DepAdmin":"Escola Estadual","NomeInsti":"Mata","Nível":"Fundamental","Telefone":null,"Endereco":"Rua Guaíba","CEP":null,"Bairro":"Cidade da Esperança","Zona":"Oeste","Prédio":null,"Decreto_de":null,"Longitude":251744.077,"Latitude":9355862.127},"geometry":{"type":"Point","coordinates":[-35.241943549684606,-5.823056440679595]}},{"type":"Feature","properties":{"DepAdmin":"Escola Estadual","NomeInsti":"Lauro de Castro","Nível":"Fundamental e EJA","Telefone":null,"Endereco":"Rua Souza","CEP":null,"Bairro":"Cidade da Esperança","Zona":"Oeste","Prédio":null,"Decreto_de":null,"Longitude":252409.965,"Latitude":9355950.09},"geometry":{"type":"Point","coordinates":[-35.23593001963925,-5.822285172850409]}},{"type":"Feature","properties":{"DepAdmin":"Escola Estadual","NomeInsti":"Raimundo Soares","Nível":"Fundamental e Medio","Telefone":null,"Endereco":"Rua Patos","CEP":null,"Bairro":"Cidade da Esperança","Zona":"Oeste","Prédio":null,"Decreto_de":null,"Longitude":252505.647,"Latitude":9355917.31},"geometry":{"type":"Point","coordinates":[-35.235067559973196,-5.822584912693953]}},{"type":"Feature","properties":{"DepAdmin":"Escola Estadual","NomeInsti":"União do Povo de Cidade Nova","Nível":"Fundamental e Medio","Telefone":null,"Endereco":"Tv. Getúlio Vargas","CEP":null,"Bairro":"Cidade Nova","Zona":"Oeste","Prédio":null,"Decreto_de":null,"Longitude":251705.589,"Latitude":9354537.248},"geometry":{"type":"Point","coordinates":[-35.2423384944709,-5.835031173154674]}},{"type":"Feature","properties":{"DepAdmin":"Escola Estadual","NomeInsti":"Café Filho","Nível":"Fundamental","Telefone":null,"Endereco":"Rua Cel Norton Chaves","CEP":null,"Bairro":"Nova Descoberta","Zona":"Sul","Prédio":null,"Decreto_de":null,"Longitude":256380.879,"Latitude":9354890.482},"geometry":{"type":"Point","coordinates":[-35.200124965772325,-5.83200471176768]}},{"type":"Feature","properties":{"DepAdmin":"Escola Estadual","NomeInsti":"Hegesippo Reis","Nível":"Fundamental","Telefone":null,"Endereco":"Rua Claudionor Figueiredo, 405","CEP":null,"Bairro":"Nova Descoberta","Zona":"Sul","Prédio":null,"Decreto_de":null,"Longitude":256125.73,"Latitude":9355396.996},"geometry":{"type":"Point","coordinates":[-35.20241020561115,-5.827416993329392]}},{"type":"Feature","properties":{"DepAdmin":"Escola Estadual","NomeInsti":"Jerônimo de Albuquerque","Nível":"Fundamental","Telefone":null,"Endereco":"Rua Manoel Coringa de Lemos","CEP":null,"Bairro":"Ponta Negra","Zona":"Sul","Prédio":null,"Decreto_de":null,"Longitude":259401.043,"Latitude":9349195.206},"geometry":{"type":"Point","coordinates":[-35.173062331938716,-5.883594897585179]}},{"type":"Feature","properties":{"DepAdmin":"Escola Estadual","NomeInsti":"Isabel Gondim","Nível":"Fundamental e EJA","Telefone":null,"Endereco":"Largo Profº. Acrísio Freire","CEP":null,"Bairro":"Rocas","Zona":"Leste","Prédio":null,"Decreto_de":null,"Longitude":256045.322,"Latitude":9361301.661},"geometry":{"type":"Point","coordinates":[-35.20292878683196,-5.774038022394793]}},{"type":"Feature","properties":{"DepAdmin":"Escola Estadual","NomeInsti":"Severino B. de Melo","Nível":"Fundamental","Telefone":null,"Endereco":"Rua João XXIII","CEP":null,"Bairro":"Mãe Luiza","Zona":"Leste","Prédio":null,"Decreto_de":null,"Longitude":257651.18,"Latitude":9358970.63},"geometry":{"type":"Point","coordinates":[-35.18851599795614,-5.795165952567605]}},{"type":"Feature","properties":{"DepAdmin":"Escola Estadual","NomeInsti":"Alfredo Pegado","Nível":"Fundamental","Telefone":null,"Endereco":"Rua João XXIII","CEP":null,"Bairro":"Mãe Luiza","Zona":"Leste","Prédio":null,"Decreto_de":null,"Longitude":257499.619,"Latitude":9359209.941},"geometry":{"type":"Point","coordinates":[-35.18987564029676,-5.792997350519104]}},{"type":"Feature","properties":{"DepAdmin":"Escola Estadual","NomeInsti":"Selva Capistrano Lopes","Nível":"Fundamental e EJA","Telefone":null,"Endereco":"Rua Guanabara","CEP":null,"Bairro":"Mãe Luiza","Zona":"Leste","Prédio":null,"Decreto_de":null,"Longitude":257686.229,"Latitude":9359336.979},"geometry":{"type":"Point","coordinates":[-35.188186892061296,-5.791855471991043]}},{"type":"Feature","properties":{"DepAdmin":"Escola Estadual","NomeInsti":"Casa do Menor Trabalhador","Nível":"Fundamental","Telefone":null,"Endereco":"Rua Presidente José Bento,927","CEP":null,"Bairro":"Alecrim","Zona":"Leste","Prédio":null,"Decreto_de":null,"Longitude":254783.512,"Latitude":9357736.171},"geometry":{"type":"Point","coordinates":[-35.21444280233934,-5.806224330092511]}},{"type":"Feature","properties":{"DepAdmin":"Escola Estadual","NomeInsti":"Pedro Mendes Gouveia","Nível":"Fundamental","Telefone":null,"Endereco":"Rua Major Afonso Magalhães","CEP":null,"Bairro":"Areia Preta","Zona":"Leste","Prédio":null,"Decreto_de":null,"Longitude":257220.896,"Latitude":9359951.738},"geometry":{"type":"Point","coordinates":[-35.19236551845282,-5.78628198591763]}},{"type":"Feature","properties":{"DepAdmin":"Escola Estadual","NomeInsti":"Imperial Marinheiro","Nível":"Fundamental e Medio","Telefone":null,"Endereco":"Rua Ararai","CEP":null,"Bairro":"Nordeste","Zona":"Oeste","Prédio":null,"Decreto_de":null,"Longitude":251435.126,"Latitude":9359159.181},"geometry":{"type":"Point","coordinates":[-35.24461412163954,-5.793241959241709]}},{"type":"Feature","properties":{"DepAdmin":"Escola Estadual","NomeInsti":"Centro Estadual de Educ. Profs. Sen. Jesse Pinto Freire - CENEP","Nível":"Medio e EJA","Telefone":null,"Endereco":"Rua Trairi,480","CEP":null,"Bairro":"Petrópolis","Zona":"Leste","Prédio":null,"Decreto_de":null,"Longitude":256253.435,"Latitude":9360077.073},"geometry":{"type":"Point","coordinates":[-35.201093227167256,-5.78511517081435]}},{"type":"Feature","properties":{"DepAdmin":"Escola Estadual","NomeInsti":"DJANIRA BRASILINO DE SOUZA\n","Nível":null,"Telefone":null,"Endereco":"RUA ESTRELA DO LESTE, 281","CEP":null,"Bairro":"Nossa Senhora da Apresentação","Zona":null,"Prédio":null,"Decreto_de":null,"Longitude":247336.037,"Latitude":9362592.797},"geometry":{"type":"Point","coordinates":[-35.28148607541593,-5.762057103082362]}},{"type":"Feature","properties":{"DepAdmin":"Escola Estadual","NomeInsti":"Stela Wanderley","Nível":null,"Telefone":null,"Endereco":"Avenida das Alagoas","CEP":null,"Bairro":"Neópolis","Zona":null,"Prédio":null,"Decreto_de":null,"Longitude":256454.462,"Latitude":9350658.193},"geometry":{"type":"Point","coordinates":[-35.19961035425511,-5.870265769045725]}},{"type":"Feature","properties":{"DepAdmin":"Escola Estadual","NomeInsti":"CLARA CAMARAO\n","Nível":null,"Telefone":null,"Endereco":"RUA ITAMAR MACIEL, 749","CEP":null,"Bairro":"Felipe Camarão","Zona":null,"Prédio":null,"Decreto_de":null,"Longitude":249611.445,"Latitude":9355929.367},"geometry":{"type":"Point","coordinates":[-35.26119031050602,-5.82237173850452]}},{"type":"Feature","properties":{"DepAdmin":"Escola Estadual","NomeInsti":"JOÃO FAUSTINO FERREIRA NETO","Nível":null,"Telefone":null,"Endereco":"RUA DEPUTADO MARCÍLIO FURTADO, 431","CEP":null,"Bairro":"Pitimbu","Zona":null,"Prédio":null,"Decreto_de":null,"Longitude":252076.986,"Latitude":9353007.263},"geometry":{"type":"Point","coordinates":[-35.23904111750864,-5.848874705892556]}},{"type":"Feature","properties":{"DepAdmin":"Escola Estadual","NomeInsti":"Passo da Pátria","Nível":null,"Telefone":null,"Endereco":"RUA OCIDENTAL DE BAIXO\n","CEP":null,"Bairro":"Cidade alta","Zona":null,"Prédio":null,"Decreto_de":null,"Longitude":255089.247,"Latitude":9360082.988},"geometry":{"type":"Point","coordinates":[-35.211600639035325,-5.785020839744182]}},{"type":"Feature","properties":{"DepAdmin":"Escola Estadual","NomeInsti":"do Guarapes","Nível":null,"Telefone":null,"Endereco":"Rua Lagoa Seca","CEP":null,"Bairro":"Guarapes","Zona":null,"Prédio":null,"Decreto_de":null,"Longitude":248097.799,"Latitude":9353819.269},"geometry":{"type":"Point","coordinates":[-35.2749292266005,-5.84139036099142]}},{"type":"Feature","properties":{"DepAdmin":"Escola Estadual","NomeInsti":"CE DE CAPACITACAO DE ED E ATEN SURDO – CAS","Nível":null,"Telefone":null,"Endereco":"Rua Dos Paiatis,2004","CEP":null,"Bairro":"Quintas","Zona":"Oeste","Prédio":null,"Decreto_de":null,"Longitude":252963.136,"Latitude":9358079.875},"geometry":{"type":"Point","coordinates":[-35.23086118771827,-5.803052813230431]}},{"type":"Feature","properties":{"DepAdmin":"Escola Estadual","NomeInsti":"CE de Educação Especial","Nível":null,"Telefone":null,"Endereco":"Centro Administrativo","CEP":null,"Bairro":"Lagoa Nova","Zona":"Sul","Prédio":null,"Decreto_de":null,"Longitude":255050.54,"Latitude":9355259.873},"geometry":{"type":"Point","coordinates":[-35.21212012562956,-5.82861849589515]}},{"type":"Feature","properties":{"DepAdmin":"Escola Estadual","NomeInsti":"Escola De Saúde Pública do RN","Nível":null,"Telefone":null,"Endereco":"Avenida Almirante Alexandrino de Alencar, 1850","CEP":null,"Bairro":"Tirol","Zona":"Leste","Prédio":null,"Decreto_de":null,"Longitude":256689.813,"Latitude":9357100.998},"geometry":{"type":"Point","coordinates":[-35.197258714383274,-5.812033240965556]}},{"type":"Feature","properties":{"DepAdmin":"Escola Estadual","NomeInsti":"Professora Iapissara Aguiar","Nível":null,"Telefone":null,"Endereco":"Rua dos Potiguares, 1275","CEP":null,"Bairro":"Dixsept Rosado","Zona":"Oeste","Prédio":null,"Decreto_de":null,"Longitude":253859.484,"Latitude":9357106.006},"geometry":{"type":"Point","coordinates":[-35.22280539155018,-5.811887991395268]}},{"type":"Feature","properties":{"DepAdmin":"Escola Estadual","NomeInsti":"NUCLEO DE ATENDIMENTO EDUCACIONAL HOSPITALAR E DOMICILIAR DO RN – NAEHD","Nível":null,"Telefone":null,"Endereco":"Avenida Senador Salgado Filho, s/n","CEP":null,"Bairro":"Lagoa Nova","Zona":"Sul","Prédio":null,"Decreto_de":null,"Longitude":256815.085,"Latitude":9359204.52},"geometry":{"type":"Point","coordinates":[-35.19605437642468,-5.793022441918213]}},{"type":"Feature","properties":{"DepAdmin":"Escola Municipal","NomeInsti":"Amadeu Araújo","Nível":"Fundamental (1-9) e EJA","Telefone":"Fone: 3661-9090 e Ramal: 3232-4820","Endereco":"Rua dos Coroas, s/n","CEP":59138140,"Bairro":"Lagoa Azul","Zona":"Norte","Prédio":"Proprio","Decreto_de":"Nº 2.764     23/02/83","Longitude":249163.069,"Latitude":9365463.642},"geometry":{"type":"Point","coordinates":[-35.264894599623254,-5.736172526707933]}},{"type":"Feature","properties":{"DepAdmin":"Escola Municipal","NomeInsti":"João Paulo II","Nível":"Fundamental I (1-5) e EJA","Telefone":"Fone: 3661-9118 e Ramal: 3232-4821","Endereco":"Rua do Bambolês, s/n, Conjunto Nova Natal","CEP":59139160,"Bairro":"Lagoa Azul","Zona":"Norte","Prédio":"Proprio","Decreto_de":"Nº 2.764 21/02/83","Longitude":249470.699,"Latitude":9366142.208},"geometry":{"type":"Point","coordinates":[-35.262094207560736,-5.730049744597568]}},{"type":"Feature","properties":{"DepAdmin":"Escola Municipal","NomeInsti":"Maria Dalva Gomes Bezerra","Nível":"Infantil e Fundamental I (1-5)","Telefone":"Fone: 3663-9084","Endereco":"Rua Barueri, 270","CEP":59135510,"Bairro":"Lagoa Azul","Zona":"Norte","Prédio":"Proprio","Decreto_de":"Nº 4.972 11/03/93","Longitude":250883.314,"Latitude":9366291.304},"geometry":{"type":"Point","coordinates":[-35.249340740453974,-5.728752223628306]}},{"type":"Feature","properties":{"DepAdmin":"Escola Municipal","NomeInsti":"Lourdes Godeiro","Nível":"Fundamental I (1-5)","Telefone":"Fone: 3663-9019 e Ramal: 3232-4830","Endereco":"Avenida Moema Tinôco da Cunha Lima, 4265","CEP":59136245,"Bairro":"Lagoa Azul","Zona":"Norte","Prédio":"Proprio","Decreto_de":"Nº 2.380 04/09/80","Longitude":250757.572,"Latitude":9367660.738},"geometry":{"type":"Point","coordinates":[-35.25042707870379,-5.716368924169471]}},{"type":"Feature","properties":{"DepAdmin":"Escola Municipal","NomeInsti":"Zuleide F. de Macêdo Silva","Nível":"Fundamental I (1-5)","Telefone":"Nº 6.180 28/04/98","Endereco":"Rua Barragem Armando Ribeiro Gonçalves, 859","CEP":59133300,"Bairro":"Pajuçara","Zona":"Norte","Prédio":"Proprio","Decreto_de":"Nº 6.180 28/04/98","Longitude":252467.738,"Latitude":9364901.799},"geometry":{"type":"Point","coordinates":[-35.235090859349775,-5.741368601630453]}},{"type":"Feature","properties":{"DepAdmin":"Escola Municipal","NomeInsti":"Maria Alexandrina Sampaio","Nível":"Fundamental (3-9)","Telefone":"Fone: 3663-5190","Endereco":"Rua do Anequim, 110","CEP":59132450,"Bairro":"Pajuçara","Zona":"Norte","Prédio":"Proprio","Decreto_de":"Nº 5.729 23/08/95","Longitude":252105.772,"Latitude":9365496.449},"geometry":{"type":"Point","coordinates":[-35.238336567409775,-5.735980502011743]}},{"type":"Feature","properties":{"DepAdmin":"Escola Municipal","NomeInsti":"Francisca de Oliveira","Nível":"Fundamental (1-9)","Telefone":"Fone: 3663-5261 e Ramal: 3232-4832/3232-5402","Endereco":"Rua Lindolfo Gomes Vidal, 230","CEP":59133560,"Bairro":"Pajuçara","Zona":"Norte","Prédio":"Proprio","Decreto_de":"Nº 2.055 31/05/78","Longitude":253384.532,"Latitude":9364640.066},"geometry":{"type":"Point","coordinates":[-35.22682611501222,-5.743766847003751]}},{"type":"Feature","properties":{"DepAdmin":"Escola Municipal","NomeInsti":"Palmira de Souza","Nível":"Infantil e Fundamental (1-8)","Telefone":"Fone: 3214-3407","Endereco":"Rua Volta Redonda, s/n","CEP":59110470,"Bairro":"Potengi","Zona":"Norte","Prédio":"Proprio","Decreto_de":"Nº 2.380 27.08.80","Longitude":249913.447,"Latitude":9363822.454},"geometry":{"type":"Point","coordinates":[-35.25818119219542,-5.751034540583336]}},{"type":"Feature","properties":{"DepAdmin":"Escola Municipal","NomeInsti":"Catarina","Nível":"Infantil e Fundamental I (1-5)","Telefone":"Ramal: 3232-4841","Endereco":"Rua Profª. Maria Arlete de Lima Nascimento, s/n","CEP":"59110 710","Bairro":"Potengi","Zona":"Norte","Prédio":"Proprio","Decreto_de":"Nº 2.380 27.08.80","Longitude":250283.043,"Latitude":9363241.227},"geometry":{"type":"Point","coordinates":[-35.25486635444352,-5.756301650718653]}},{"type":"Feature","properties":{"DepAdmin":"Escola Municipal","NomeInsti":"Adelina Fernandes","Nível":"Fundamental (1-9)","Telefone":"Tel Fone: 3661-92-40 Ramal: 3232-4825","Endereco":"Rua Angra dos Reis, s/n","CEP":59110620,"Bairro":"Potengi","Zona":"Norte","Prédio":"Proprio","Decreto_de":"Nº 2.664    05/05/82","Longitude":250543.636,"Latitude":9364567.08},"geometry":{"type":"Point","coordinates":[-35.25246735205827,-5.744326079640254]}},{"type":"Feature","properties":{"DepAdmin":"Escola Municipal","NomeInsti":"José do Patrocínio Pereira Pinto","Nível":"Infantil, Fundamental (1-9) e EJA","Telefone":"Fone: 3661-5411/3662-8272","Endereco":"Avenida Mangabeira, 1905, Panorama","CEP":59120420,"Bairro":"Potengi","Zona":"Norte","Prédio":"Proprio","Decreto_de":"Nº 1.965 06/09/77 Aut.nº 378/82","Longitude":251801.319,"Latitude":9363186.133},"geometry":{"type":"Point","coordinates":[-35.2411658787862,-5.756853701906365]}},{"type":"Feature","properties":{"DepAdmin":"Escola Municipal","NomeInsti":"Iapissara Aguiar","Nível":"Fundamental II (6-9)","Telefone":"Fone: 3214-4826 e Ramal: 3232-4837","Endereco":"Rua Ilhéus s/n, Conjunto Panatis","CEP":59108700,"Bairro":"Potengi","Zona":"Norte","Prédio":"Proprio","Decreto_de":"Nº 2.161 08/02/79","Longitude":250425.57,"Latitude":9362664.298},"geometry":{"type":"Point","coordinates":[-35.253600611082035,-5.761521805487954]}},{"type":"Feature","properties":{"DepAdmin":"Escola Municipal","NomeInsti":"Malvina Cosme","Nível":"Fundamental I (1-5)","Telefone":"Fone: 3214-3823/3214-5586","Endereco":"Rua Paranduva, 2903","CEP":59110180,"Bairro":"Potengi","Zona":"Norte","Prédio":"Proprio","Decreto_de":"Nº 3.959 27/07/89","Longitude":250775.724,"Latitude":9362961.126},"geometry":{"type":"Point","coordinates":[-35.2504298886948,-5.758851161664816]}},{"type":"Feature","properties":{"DepAdmin":"Escola Municipal","NomeInsti":"José Alves Landim","Nível":"Fundamental (1-9)","Telefone":"Ramal: 3232-9480","Endereco":"Rua Retirolândia, s/n","CEP":59022110,"Bairro":"Potengi","Zona":"Leste","Prédio":"Proprio","Decreto_de":"Nº 8.376 06/03/08","Longitude":250752.022,"Latitude":9363548.138},"geometry":{"type":"Point","coordinates":[-35.250622917372326,-5.753544089976027]}},{"type":"Feature","properties":{"DepAdmin":"Escola Municipal","NomeInsti":"Maria Madalena X. de Andrade","Nível":"Fundamental (1-8) e EJA","Telefone":"Ramal: 3232-4834","Endereco":"Rua Votuporanga, 35","CEP":59129430,"Bairro":"Potengi","Zona":"Norte","Prédio":"Proprio","Decreto_de":"Nº 6.164 07/04/98","Longitude":250658.284,"Latitude":9365498.852},"geometry":{"type":"Point","coordinates":[-35.251399612425736,-5.735907519449255]}},{"type":"Feature","properties":{"DepAdmin":"Escola Municipal","NomeInsti":"Terezinha Paulino de Lima","Nível":"Fundamental II (6-9) e EJA","Telefone":"Ramais: 3232-4836/4843","Endereco":"Rua Matinhos, s/n, Parque dos Coqueiros","CEP":59114610,"Bairro":"N. Srª. da Apresentação","Zona":"Norte","Prédio":"Proprio","Decreto_de":"Nº 4.971       11/03/93","Longitude":247635.783,"Latitude":9362372.431},"geometry":{"type":"Point","coordinates":[-35.27878884974976,-5.764059862039846]}},{"type":"Feature","properties":{"DepAdmin":"Escola Municipal","NomeInsti":"Waldson José Bastos Pinheiro","Nível":"Fundamental II (6-9) e EJA","Telefone":"Fone: 3664-3554","Endereco":"Rua São Francisco, 361","CEP":59114155,"Bairro":"N. Srª. da Apresentação","Zona":"Norte","Prédio":"Proprio","Decreto_de":"Nº 6.892 25/01/02","Longitude":248444.691,"Latitude":9363490.686},"geometry":{"type":"Point","coordinates":[-35.271448331926514,-5.753980862085482]}},{"type":"Feature","properties":{"DepAdmin":"Escola Municipal","NomeInsti":"Reginaldo Ferreira Neto","Nível":"Fundamental I (1-5)","Telefone":"Ramal:3232-4870","Endereco":"Rua Nova Esperança, Pq. dos Coqueiros","CEP":59114510,"Bairro":"N. Srª. da Apresentação","Zona":"Norte","Prédio":"Proprio","Decreto_de":"Nº 6.542 12.04.00","Longitude":247756.359,"Latitude":9362620.064},"geometry":{"type":"Point","coordinates":[-35.27769173462915,-5.761825819204181]}},{"type":"Feature","properties":{"DepAdmin":"Escola Municipal","NomeInsti":"Arcangela","Nível":"Fundamental (1-9) e EJA","Telefone":"Fone: 3214-3119 e Ramal: 3232-4828","Endereco":"Rua São Pedro, 188","CEP":59104270,"Bairro":"Igapó","Zona":"Norte","Prédio":"Proprio","Decreto_de":"Nº 1.902 04/03/77","Longitude":249608.152,"Latitude":9361695.951},"geometry":{"type":"Point","coordinates":[-35.26101248876001,-5.770245754776035]}},{"type":"Feature","properties":{"DepAdmin":"Escola Municipal","NomeInsti":"José Sotero","Nível":"Fundamental II (6-9) e EJA","Telefone":"Fone: 3214-4811 e Ramal: 3232-8249","Endereco":"Avenida Aracaju, 142","CEP":59104200,"Bairro":"Igapó","Zona":"Norte","Prédio":"Proprio","Decreto_de":"Nº 1.902 04/03/77       Nº 409/76 30/12/76","Longitude":250557.621,"Latitude":9361736.648},"geometry":{"type":"Point","coordinates":[-35.25244192841698,-5.769911882105827]}},{"type":"Feature","properties":{"DepAdmin":"Escola Municipal","NomeInsti":"Herly Parente","Nível":"Infantil e Fundamental I (1-5)","Telefone":"Fone: 3214-2127 e Ramal: 3232-4827","Endereco":"Rua da Capela s/n","CEP":59104420,"Bairro":"Igapó","Zona":"Norte","Prédio":"Proprio","Decreto_de":"Nº 1.965 06/09/77","Longitude":250524.195,"Latitude":9361692.838},"geometry":{"type":"Point","coordinates":[-35.252745166708166,-5.770306697513805]}},{"type":"Feature","properties":{"DepAdmin":"Escola Municipal","NomeInsti":"Erivan França","Nível":"Fundamental I (1-5) e EJA","Telefone":"Fone: 3664-9046 e Ramal: 3232-4826","Endereco":"1 Tv Irmã Vitória, 264-","CEP":59106020,"Bairro":"Igapó","Zona":"Norte","Prédio":"Proprio","Decreto_de":"Nº 3.815 25/11/88","Longitude":249002.648,"Latitude":9362349.905},"geometry":{"type":"Point","coordinates":[-35.266453757165976,-5.764312734093624]}},{"type":"Feature","properties":{"DepAdmin":"Escola Municipal","NomeInsti":"Ulisses de Gois","Nível":"Infantil, fundamental e EJA","Telefone":"Fone: 3206-6724","Endereco":"Rua Padre Raimundo Brasil, s/n","CEP":59075100,"Bairro":"Nova Descoberta","Zona":"Sul","Prédio":"Proprio","Decreto_de":"Nº 295          28.12.76","Longitude":256449.522,"Latitude":9355611.128},"geometry":{"type":"Point","coordinates":[-35.1994799875461,-5.825492735140318]}},{"type":"Feature","properties":{"DepAdmin":"Escola Municipal","NomeInsti":"Ascendino de Almeida","Nível":"Infantil e Fundamental I (1-5)","Telefone":"Fone: 3218-5421 e Ramal: 3232-4767","Endereco":"Rua Engº. Joaquim Cardoso, 220, Vale do Pitimbu","CEP":null,"Bairro":"Pitimbu","Zona":"Sul","Prédio":"Proprio","Decreto_de":"Nº 4.489     10/02/92","Longitude":252025.944,"Latitude":9352905.821},"geometry":{"type":"Point","coordinates":[-35.239505502840366,-5.849789844038143]}},{"type":"Feature","properties":{"DepAdmin":"Escola Municipal","NomeInsti":"Otto de Brito Guerra","Nível":"Fundamental II (6-9) e EJA","Telefone":"Fone: 3218-5523/3232-8373","Endereco":"Rua Serra da Jurema, s/n","CEP":59068150,"Bairro":"Pitimbu","Zona":"Sul","Prédio":"Proprio","Decreto_de":"Nº 5.880 01.07.96","Longitude":251315.853,"Latitude":9352409.323},"geometry":{"type":"Point","coordinates":[-35.24593306378168,-5.854252252679882]}},{"type":"Feature","properties":{"DepAdmin":"Escola Municipal","NomeInsti":"Arnaldo Monteiro Bezerra","Nível":"Infantil e Fundamental I (1-5)","Telefone":"Fone: 3217-8191 e Ramal: 3232-4763","Endereco":"Rua Aracitaba, 2993","CEP":59084080,"Bairro":"Neópolis","Zona":"Sul","Prédio":"Proprio","Decreto_de":"Nº 2.161      08/02/79","Longitude":256720.71,"Latitude":9350798.549},"geometry":{"type":"Point","coordinates":[-35.19720193216441,-5.869006442516031]}},{"type":"Feature","properties":{"DepAdmin":"Escola Municipal","NomeInsti":"Antônio Severiano","Nível":"Fundamental (1-9)","Telefone":"Fone: 3217-7459 e Ramal: 3232-4762","Endereco":"Avenida Ouro Preto, 2754","CEP":59088690,"Bairro":"Neópolis","Zona":"Sul","Prédio":"Proprio","Decreto_de":"Nº 2.380     27/08/80","Longitude":254771.728,"Latitude":9350644.152},"geometry":{"type":"Point","coordinates":[-35.21480099840436,-5.870332731675339]}},{"type":"Feature","properties":{"DepAdmin":"Escola Municipal","NomeInsti":"Carlos Bello Moreno","Nível":"Infantil e Fundamental I (1-5)","Telefone":"Fone: 3217-3906 e Ramal: 3232-4761","Endereco":"Rua Arapiraca, s/n, conjunto Jiqui","CEP":59086210,"Bairro":"Neópolis","Zona":"Sul","Prédio":"Proprio","Decreto_de":"Nº 1.965 06/09/77","Longitude":255645.649,"Latitude":9351397.039},"geometry":{"type":"Point","coordinates":[-35.2068853103022,-5.863558112617597]}},{"type":"Feature","properties":{"DepAdmin":"Escola Municipal","NomeInsti":"Josefa Botelho","Nível":"Fundamental (1-7) e EJA","Telefone":"Fone: 3641-9024 e Ramal: 3232-4811","Endereco":"Rua Manoel Congo, 318","CEP":59090300,"Bairro":"Ponta Negra","Zona":"Sul","Prédio":"Proprio","Decreto_de":"Nº 2.055 31/05/78            Nº 5.626 03/03/95","Longitude":259778.527,"Latitude":9348397.661},"geometry":{"type":"Point","coordinates":[-35.16968258051002,-5.890817834499228]}},{"type":"Feature","properties":{"DepAdmin":"Escola Municipal","NomeInsti":"Laura Maia","Nível":"Infantil e Fundamental I (1-5)","Telefone":"Fone: 3202-227 e Ramal: 3232-4801","Endereco":"Rua do Motor, 707","CEP":59010090,"Bairro":"Praia do Meio","Zona":"Leste","Prédio":"Proprio","Decreto_de":"Nº 1.902 04/03/77       Nº 348  17/06/82","Longitude":257065.302,"Latitude":9360437.354},"geometry":{"type":"Point","coordinates":[-35.1937529580154,-5.781886723232222]}},{"type":"Feature","properties":{"DepAdmin":"Escola Municipal","NomeInsti":"Henrique Castriciano","Nível":"Infantil","Telefone":"Fone: 3202-4047 e Fone: 3232-4791","Endereco":"Rua Décio Fonseca, 663","CEP":59010370,"Bairro":"Santos Reis","Zona":"Leste","Prédio":"Proprio","Decreto_de":"Nº 801 23/04/66 Nº 935 03/10/81","Longitude":256689.234,"Latitude":9361469.608},"geometry":{"type":"Point","coordinates":[-35.19711125712431,-5.772542328257536]}},{"type":"Feature","properties":{"DepAdmin":"Escola Municipal","NomeInsti":"Santos Reis","Nível":"Infantil, Fundamental (1-9) e EJA","Telefone":"Fone: 3202-4710","Endereco":"Rua Décio Fonseca","CEP":59010560,"Bairro":"Santos Reis","Zona":"Leste","Prédio":"Proprio","Decreto_de":"Nº 6.160     07/04/98","Longitude":256087.577,"Latitude":9361878.004},"geometry":{"type":"Point","coordinates":[-35.202527291698935,-5.768829545970942]}},{"type":"Feature","properties":{"DepAdmin":"Escola Municipal","NomeInsti":"4º Centenário","Nível":"Fundamental II (6-9)","Telefone":"Fone: 3215-1130/9991-0722","Endereco":"Rua Silvio Pelico","CEP":59020035,"Bairro":"Alecrim","Zona":"Leste","Prédio":"Cedido","Decreto_de":"Nº 6.426 16/07/99","Longitude":256264.102,"Latitude":9360411.358},"geometry":{"type":"Point","coordinates":[-35.20098526747878,-5.782093725056048]}},{"type":"Feature","properties":{"DepAdmin":"Escola Municipal","NomeInsti":"Antônio Campos e Silva","Nível":"Fundamental I (1-5)","Telefone":"Fone: 3202-1926 e Ramal: 3232-4800","Endereco":"Rua João XXIII, 1821","CEP":59014000,"Bairro":"Mãe Luiza","Zona":"Leste","Prédio":"Proprio","Decreto_de":"Nº 4.146      15/06/90","Longitude":258221.033,"Latitude":9358436.29},"geometry":{"type":"Point","coordinates":[-35.18339108730156,-5.800016117633933]}},{"type":"Feature","properties":{"DepAdmin":"Escola Municipal","NomeInsti":"Juvenal Lamartine","Nível":"Infantil, Fundamental (1-9) e EJA","Telefone":"Fone: 3641-9024 e Ramal: 3232-4811","Endereco":"Rua Presidente Sarmento, 1156","CEP":59032400,"Bairro":"Alecrim","Zona":"Leste","Prédio":"Proprio","Decreto_de":"Nº 802 06/05/66       Nº 935 30/10/80","Longitude":254732.762,"Latitude":9357492.91},"geometry":{"type":"Point","coordinates":[-35.214909466544064,-5.808421512400463]}},{"type":"Feature","properties":{"DepAdmin":"Escola Municipal","NomeInsti":"João XXIII","Nível":"Fundamental II (6-9)","Telefone":"Fone: 3223-1025/3213-1758","Endereco":"Rua dos Pajeús, 1875","CEP":59037800,"Bairro":"Alecrim","Zona":"Leste","Prédio":"Proprio","Decreto_de":"Nº 2.040 13/03/78        Nº 1.001 03/10/80","Longitude":253717.759,"Latitude":9358005.72},"geometry":{"type":"Point","coordinates":[-35.22405269303562,-5.803749966896189]}},{"type":"Feature","properties":{"DepAdmin":"Escola Municipal","NomeInsti":"Joaquim Honório","Nível":"Fundamental I (1-5)","Telefone":"Ramal: 3232-4851","Endereco":"Rua Presidente Mascarenhas, 768","CEP":59032540,"Bairro":"Alecrim","Zona":"Leste","Prédio":"Proprio","Decreto_de":"Nº 1.507 27/08/74       Nº 938 03/10/80","Longitude":253685.193,"Latitude":9357983.388},"geometry":{"type":"Point","coordinates":[-35.22434742663244,-5.803950675409174]}},{"type":"Feature","properties":{"DepAdmin":"Escola Municipal","NomeInsti":"Ferreira Itajubá","Nível":"Infantil, Fundamental (1-9) e EJA","Telefone":"Fone: 3653-2259 E Ramal: 3232-4859","Endereco":"Rua dos Pegas, s/n","CEP":59052700,"Bairro":"Quintas","Zona":"Oeste","Prédio":"Proprio","Decreto_de":"Nº 799 19/04/66 Portaria 936/80 03/10/80","Longitude":253149.248,"Latitude":9358347.619},"geometry":{"type":"Point","coordinates":[-35.229171862644115,-5.800639161385219]}},{"type":"Feature","properties":{"DepAdmin":"Escola Municipal","NomeInsti":"Berilo Wanderley","Nível":"Fundamental I (1-5)","Telefone":"Ramal: 3232-4856","Endereco":"Rua dos Paianazes","CEP":59060028,"Bairro":"Quintas","Zona":"Oeste","Prédio":"Proprio","Decreto_de":"Nº 2.380 27/08/80","Longitude":252968.952,"Latitude":9357763.922},"geometry":{"type":"Point","coordinates":[-35.23081992850739,-5.805909069354223]}},{"type":"Feature","properties":{"DepAdmin":"Escola Municipal","NomeInsti":"Angélica de Almeida Moura","Nível":"Infantil e Fundamental I (1-5)","Telefone":"Fone: 3653-1400 e Ramal: 3232-4858","Endereco":"Rua Prefeito Gentil Ferreira, s/n, Novo Horizonte","CEP":59050050,"Bairro":"Quintas","Zona":"Oeste","Prédio":"Proprio","Decreto_de":"Nº 3.814       25/11/88","Longitude":252339.574,"Latitude":9358100.702},"geometry":{"type":"Point","coordinates":[-35.23648860707626,-5.802842313997515]}},{"type":"Feature","properties":{"DepAdmin":"Escola Municipal","NomeInsti":"Chico Santeiro","Nível":"Infantil, Fundamental I (1-5) e EJA","Telefone":"Fone: 3653-3096 E Ramal: 3232-4855","Endereco":"Rua da Cruz, s/n","CEP":59042150,"Bairro":"Nordeste","Zona":"Oeste","Prédio":"Proprio","Decreto_de":"Nº 806    20/05/66","Longitude":251775.721,"Latitude":9358632.071},"geometry":{"type":"Point","coordinates":[-35.24155884714958,-5.798018904365287]}},{"type":"Feature","properties":{"DepAdmin":"Escola Municipal","NomeInsti":"Mario Lira","Nível":"Infantil, Fundamental (1-9) e EJA","Telefone":"Fone: 3213-7050","Endereco":"Avenida Antônio Basílio, s/n","CEP":59052475,"Bairro":"Dix-Sept Rosado","Zona":"Oeste","Prédio":"Proprio","Decreto_de":"Nº 805 20.05.66","Longitude":253666.241,"Latitude":9357502.1},"geometry":{"type":"Point","coordinates":[-35.224535550347426,-5.808300622265173]}},{"type":"Feature","properties":{"DepAdmin":"Escola Municipal","NomeInsti":"Francisca Ferreira da Silva","Nível":"Infantil, Fundamental I (1-5) e EJA","Telefone":"Fone: 3653-4768 e Ramal: 3232-4861","Endereco":"Av. Industrial João Francisco da Motta, 3804","CEP":59060480,"Bairro":"Bom Pastor","Zona":"Oeste","Prédio":"Proprio","Decreto_de":"Nº 2.055 31/05/78","Longitude":251557.136,"Latitude":9357399.236},"geometry":{"type":"Point","coordinates":[-35.24357580444095,-5.809155180491161]}},{"type":"Feature","properties":{"DepAdmin":"Escola Municipal","NomeInsti":"Zuza","Nível":"Fundamental (1-9) e EJA","Telefone":"Fone: 3213-5916","Endereco":"Avenida Miguel de Castro, S/N","CEP":59052200,"Bairro":"N. Sra. de Nazaré","Zona":"Oeste","Prédio":"Proprio","Decreto_de":"Nº 3.747 29/08/88","Longitude":252962.202,"Latitude":9356780.674},"geometry":{"type":"Point","coordinates":[-35.23091585548341,-5.81479687895505]}},{"type":"Feature","properties":{"DepAdmin":"Escola Municipal","NomeInsti":"Francisco de Assis","Nível":"Infantil e Fundamental I (1-5)","Telefone":"Fone: 3213-2163","Endereco":"Av. Miguel Castro, 126","CEP":59062000,"Bairro":"N. Sra. de Nazaré","Zona":"Oeste","Prédio":"Proprio","Decreto_de":"Nº 2.055     31/05/78","Longitude":252529.715,"Latitude":9356861.92},"geometry":{"type":"Point","coordinates":[-35.23481659089372,-5.814047016366406]}},{"type":"Feature","properties":{"DepAdmin":"Escola Municipal","NomeInsti":"Djalma Maranhão","Nível":"Infantil, Fundamental I (1-5) e EJA","Telefone":"Fone: 3205-7667 e Ramal: 3232-4783","Endereco":"Rua Santa Maria Madalena","CEP":59072150,"Bairro":"Felipe Camarão","Zona":"Oeste","Prédio":"Proprio","Decreto_de":"Nº 2.624 21/01/82","Longitude":251108.677,"Latitude":9355074.602},"geometry":{"type":"Point","coordinates":[-35.24770703862317,-5.830152326603964]}},{"type":"Feature","properties":{"DepAdmin":"Escola Municipal","NomeInsti":"Bernardo do Nascimento, s/n","Nível":"Fundamental (1-9) e EJA","Telefone":"Fone: 3205-8057 e  Ramal: 3232-4777","Endereco":"Rua Nossa Senhora do Livramento","CEP":59060148,"Bairro":"Felipe Camarão","Zona":"Oeste","Prédio":"Proprio","Decreto_de":"Nº 2.625 21/01/82","Longitude":250433.904,"Latitude":9355682.264},"geometry":{"type":"Point","coordinates":[-35.253775721892225,-5.824635116536352]}},{"type":"Feature","properties":{"DepAdmin":"Escola Municipal","NomeInsti":"Maria Cristina Ozório Tavares","Nível":"Fundamental I (1-5)","Telefone":"Ramal: 3232-4773","Endereco":"Rua Antônio Carolino, 1","CEP":"59074 330","Bairro":"Felipe Camarão","Zona":"Oeste","Prédio":"Proprio","Decreto_de":"Nº 6.369 19/02/99","Longitude":249655.675,"Latitude":9355600.271},"geometry":{"type":"Point","coordinates":[-35.260802988402425,-5.82534812789884]}},{"type":"Feature","properties":{"DepAdmin":"Escola Municipal","NomeInsti":"Veríssimo de Melo","Nível":"Fundamental II (6-9)","Telefone":"Fone: 3205-8534","Endereco":"Rua Rainha do Mar","CEP":59074160,"Bairro":"Felipe Camarão","Zona":"Oeste","Prédio":"Proprio","Decreto_de":"Nº 5.964 27/12/96 Portaria nº 62 04/09/07","Longitude":249638.348,"Latitude":9355642.803},"geometry":{"type":"Point","coordinates":[-35.26095784985837,-5.82496304533054]}},{"type":"Feature","properties":{"DepAdmin":"Escola Municipal","NomeInsti":"Celestino Pimentel","Nível":"Fundamental (1-9) e EJA","Telefone":"Fone: 3086-8624/3205-3552 e Ramal: 3232-4771/4772","Endereco":"Avenida Pernambuco, 145","CEP":59070300,"Bairro":"Cidade da Esperança","Zona":"Oeste","Prédio":"Proprio","Decreto_de":"Nº 1.904 04/03/77","Longitude":252397.785,"Latitude":9355610.203},"geometry":{"type":"Point","coordinates":[-35.236052113432756,-5.82535712889402]}},{"type":"Feature","properties":{"DepAdmin":"Escola Municipal","NomeInsti":"Emília Ramos","Nível":"Fundamental I (1-5) e EJA","Telefone":"Fone: 3605-4100 Ramal: 3232-8341","Endereco":"Rua Dantas Barreto,  s/n","CEP":59072590,"Bairro":"Cidade Nova","Zona":"Oeste","Prédio":"Proprio","Decreto_de":"Nº 3.780 28/09/88            Nº 5.755 12/09/95","Longitude":251969.042,"Latitude":9354851.998},"geometry":{"type":"Point","coordinates":[-35.23994919759856,-5.832195492685187]}},{"type":"Feature","properties":{"DepAdmin":"Escola Municipal","NomeInsti":"Luís Maranhão Filho","Nível":"Fundamental  (4-8) e EJA","Telefone":"Fone: 3205-3044","Endereco":"Av. Solange Nunes do Nascimento, 239","CEP":59072500,"Bairro":"Cidade Nova","Zona":"Oeste","Prédio":"Proprio","Decreto_de":"Nº 3.825 06/12/88","Longitude":251959.723,"Latitude":9354838.494},"geometry":{"type":"Point","coordinates":[-35.24003380095869,-5.832317228533773]}},{"type":"Feature","properties":{"DepAdmin":"Escola Municipal","NomeInsti":"Almerinda Bezerra Furtado","Nível":"Fundamental I (1-5) e EJA","Telefone":"Fone: 3618-0255 e Ramal: 3232-4764","Endereco":"Rua Novo Guarapes","CEP":59064690,"Bairro":"Guarapes","Zona":"Oeste","Prédio":"Proprio","Decreto_de":"Nº 6.165     07/04/98","Longitude":248203.576,"Latitude":9353602.364},"geometry":{"type":"Point","coordinates":[-35.27398237989257,-5.843354874162324]}},{"type":"Feature","properties":{"DepAdmin":"Escola Municipal","NomeInsti":"Francisco de Assis Varela Cavalcanti","Nível":"Fundamental II (6-9)","Telefone":"Fone: 3618-024 e Ramal: 3232-47651","Endereco":"Rua da Lagoa Seca, s/n","CEP":59074750,"Bairro":"Guarapes","Zona":"Oeste","Prédio":"Proprio","Decreto_de":"Nº 4.214 02/10/90","Longitude":248084.01,"Latitude":9353822.959},"geometry":{"type":"Point","coordinates":[-35.27505355541777,-5.841356501852834]}},{"type":"Feature","properties":{"DepAdmin":"Escola Municipal","NomeInsti":"Emmanuel Bezerra","Nível":"Fundamental I (1-5)","Telefone":"Ramal: 3232-4766","Endereco":"Rua Mira Mangue, 1187","CEP":59073230,"Bairro":"Planalto","Zona":"Oeste","Prédio":"Proprio","Decreto_de":"Nº 5.277 15/03/94             Nº 5.880 01/07/96","Longitude":250295.336,"Latitude":9353072.763},"geometry":{"type":"Point","coordinates":[-35.255120753517794,-5.84821823059761]}},{"type":"Feature","properties":{"DepAdmin":"Escola Municipal","NomeInsti":"São José","Nível":"Fundamental I (1-5)","Telefone":"Ramal: 3232-4810","Endereco":"Rua Manoel Coringa de Lemos, 434","CEP":59090300,"Bairro":"Ponta Negra","Zona":"Sul","Prédio":"Proprio","Decreto_de":"Nº 2.055     31/05/78","Longitude":259820.35,"Latitude":9349002.37},"geometry":{"type":"Point","coordinates":[-35.16928380478881,-5.885352834222299]}},{"type":"Feature","properties":{"DepAdmin":"Escola Municipal","NomeInsti":"Mareci G. dos Santos","Nível":"Infantil e Fundamental I (1-5)","Telefone":"Ramal Novo: 3203-2009","Endereco":"Travessa Ocidental de Baixo, 333","CEP":59040085,"Bairro":"Alecrim","Zona":"Leste","Prédio":"Proprio","Decreto_de":"Nº 6.148 05/03/98","Longitude":254965.425,"Latitude":9359641.52},"geometry":{"type":"Point","coordinates":[-35.21273373720469,-5.789007170761276]}},{"type":"Feature","properties":{"DepAdmin":"Escola Municipal","NomeInsti":"Nossa Senhora das Dores","Nível":"Fundamental I (1-5)","Telefone":"Fone: 3653-5144","Endereco":"Rua Rio Potengi, 3536","CEP":59040580,"Bairro":"Nordeste","Zona":"Oeste","Prédio":"Alugado","Decreto_de":"Nº 6.162 07.04.98       Nº 328 06.08.93","Longitude":252013.531,"Latitude":9359023.879},"geometry":{"type":"Point","coordinates":[-35.23939848102618,-5.794485677735765]}},{"type":"Feature","properties":{"DepAdmin":"Escola Municipal","NomeInsti":"Nossa Senhora dos Navegantes","Nível":"Fundamental I (1-5)","Telefone":"Fone: 3224-2539","Endereco":"Rua do Cruzeiro, 664","CEP":59122050,"Bairro":"Redinha","Zona":"Norte","Prédio":"Proprio","Decreto_de":"Nº1.902 04.03.77       Nº 996 20.10.80","Longitude":255757.765,"Latitude":9364114.542},"geometry":{"type":"Point","coordinates":[-35.205425997103184,-5.748600487571902]}},{"type":"Feature","properties":{"DepAdmin":"Escola Municipal","NomeInsti":"Nossa Senhora da Apresentação","Nível":"Fundamental I (1-5)","Telefone":"Fone: 3232-4845/3614-2913","Endereco":"Rua José Luiz da Silva, s/n, lot. Aliança","CEP":59114230,"Bairro":"N. Srª. da Apresentação","Zona":"Norte","Prédio":"Proprio","Decreto_de":"Nº 6.930       04.04.02","Longitude":248538.16,"Latitude":9364654.28},"geometry":{"type":"Point","coordinates":[-35.27056308724079,-5.743466196531847]}},{"type":"Feature","properties":{"DepAdmin":"Escola Municipal","NomeInsti":"Dalva de Oliveira","Nível":"Fundamental (1-9) e EJA","Telefone":"Fone: 3664-9068 e Ramal: 3232-4842","Endereco":"Avenida Boa Sorte, 639, Santarém","CEP":59114250,"Bairro":"N. Srª. da Apresentação","Zona":"Norte","Prédio":"Proprio","Decreto_de":"Nº 5.965 27/12/96","Longitude":248817.091,"Latitude":9363875.037},"geometry":{"type":"Point","coordinates":[-35.26807371929531,-5.750519983149317]}},{"type":"Feature","properties":{"DepAdmin":"Escola Municipal","NomeInsti":"José de Andrade Frazão","Nível":"Fundamental I (1-5) e EJA","Telefone":"Ramal: 3232-8218","Endereco":"Avenida Boa Sorte, s/n Lot. Jardim Progresso","CEP":59114309,"Bairro":"N. Srª. da Apresentação","Zona":"Norte","Prédio":"Proprio","Decreto_de":"Nº 6.194 26/05/98","Longitude":247882.841,"Latitude":9364849.371},"geometry":{"type":"Point","coordinates":[-35.27647009595066,-5.741679193529233]}},{"type":"Feature","properties":{"DepAdmin":"Escola Municipal","NomeInsti":"Vera Lucia Soares Barros","Nível":"Infantil e Fundamental I (1-5)","Telefone":"Fone: 3663-5184","Endereco":"Avenida Mar Mediterrâneo, 1236","CEP":59133010,"Bairro":"Pajuçara","Zona":"Norte","Prédio":"Proprio","Decreto_de":"Nº 7.147       11/03/03","Longitude":251972.132,"Latitude":9365110.684},"geometry":{"type":"Point","coordinates":[-35.239556246344584,-5.739462885616455]}},{"type":"Feature","properties":{"DepAdmin":"Escola Municipal","NomeInsti":"Laércio Fernandes Monteiro","Nível":"Fundamental I (1-5)","Telefone":"Ramal: 3232-9784","Endereco":"Rua Noel Costa, 1232","CEP":59115575,"Bairro":"N. Sra. da Apresentação","Zona":"Norte","Prédio":"Proprio","Decreto_de":null,"Longitude":247494.614,"Latitude":9363475.294},"geometry":{"type":"Point","coordinates":[-35.28002312454333,-5.754085778196501]}},{"type":"Feature","properties":{"DepAdmin":"Escola Municipal","NomeInsti":"Noilde Pessoa Ramalho","Nível":"Fundamental","Telefone":"3224-3718","Endereco":"Rua Manoel Caetano, 379","CEP":59122060,"Bairro":"Redinha","Zona":"Norte","Prédio":"Proprio","Decreto_de":"Nº 9.306       20/01/11","Longitude":254963.051,"Latitude":9364761.979},"geometry":{"type":"Point","coordinates":[-35.21257577681461,-5.742720146845815]}},{"type":"Feature","properties":{"DepAdmin":"Escola Municipal","NomeInsti":"Joseane Coutinho Dias","Nível":"Fundamental I (1-5)","Telefone":null,"Endereco":"Avenida Cidade Praia, 1240","CEP":59129470,"Bairro":"Lagoa Azul","Zona":"Norte","Prédio":"Alugado","Decreto_de":"Nº 8.692 07/04/09","Longitude":248791.176,"Latitude":9365079.399},"geometry":{"type":"Point","coordinates":[-35.268264506399966,-5.739632506923781]}},{"type":"Feature","properties":{"DepAdmin":"Escola Municipal","NomeInsti":"Tania Almeida","Nível":"Fundamental I (1-5)","Telefone":null,"Endereco":"Rua Tenente Souza, 353","CEP":59125330,"Bairro":"Pajuçara","Zona":"Norte","Prédio":"Alugado","Decreto_de":"Nº 8.690    08/04/09","Longitude":251660.868,"Latitude":9365818.542},"geometry":{"type":"Point","coordinates":[-35.242340329450116,-5.733053239327685]}},{"type":"Feature","properties":{"DepAdmin":"Escola Municipal","NomeInsti":"Tereza Satsuqui","Nível":"Fundamental I (1-5)","Telefone":"Nº  8.691  07/04/09","Endereco":"Rua Serra da Jurema, 22","CEP":59073230,"Bairro":"Pitimbu","Zona":"Oeste","Prédio":"Alugado","Decreto_de":"Nº  8.691  07/04/09","Longitude":251301.926,"Latitude":9352320.956},"geometry":{"type":"Point","coordinates":[-35.24606197462743,-5.855050531396269]}},{"type":"Feature","properties":{"DepAdmin":"Escola Municipal","NomeInsti":"Zeneide Igino de Moura","Nível":"Fundamental (4-6)","Telefone":"Fone:  3205-0041","Endereco":"Av. Solange Nunes do Nascimento","CEP":59072500,"Bairro":"Cidade Nova","Zona":"Oeste","Prédio":"Proprio","Decreto_de":"Nº 9.044 06/04/10 11/06/10 06/07/10","Longitude":251913.873,"Latitude":9354793.437},"geometry":{"type":"Point","coordinates":[-35.24044927022611,-5.832722863698174]}},{"type":"Feature","properties":{"DepAdmin":"Escola Municipal","NomeInsti":"José Melquíades De Macedo","Nível":"Fundamental (1-9)","Telefone":"Ramal: 3232-3875","Endereco":"R. das Pedrinhas, 237, Parque dos Coqueiros","CEP":59114410,"Bairro":"N. Srª. da Apresentação","Zona":"Norte","Prédio":"Alugado","Decreto_de":"Nº 8.693 07/04/09","Longitude":247916.539,"Latitude":9362796.662},"geometry":{"type":"Point","coordinates":[-35.27623976697865,-5.760235291127544]}},{"type":"Feature","properties":{"DepAdmin":"Escola Municipal","NomeInsti":"Ivonete Maciel","Nível":"Infantil e Fundamental I (1-5)","Telefone":"Fone: 3205-4059 e Ramal: 3232-4782","Endereco":"Rua Adolfo Gordo, 664","CEP":59070100,"Bairro":"Cidade da Esperança","Zona":"Oeste","Prédio":"Proprio","Decreto_de":"Nº 2.504 09/04/81","Longitude":252561.659,"Latitude":9355644.125},"geometry":{"type":"Point","coordinates":[-35.23457175207616,-5.825056363643299]}},{"type":"Feature","properties":{"DepAdmin":"Escola Municipal","NomeInsti":"EUDO JOSE ALVES","Nível":null,"Telefone":986364630,"Endereco":"Av. Maranguape, 1221","CEP":59112075,"Bairro":"Potengi","Zona":"Norte","Prédio":null,"Decreto_de":null,"Longitude":249340.781,"Latitude":9363188.603},"geometry":{"type":"Point","coordinates":[-35.26337207846739,-5.75674363668133]}},{"type":"Feature","properties":{"DepAdmin":"Escola Municipal","NomeInsti":"Santa Catarina","Nível":null,"Telefone":"Fone: 3232-4841","Endereco":"PROFESSORA MARIA ARLETE DE LIMA NASCIMEN","CEP":59110710,"Bairro":"Potengi","Zona":"Norte","Prédio":"Proprio","Decreto_de":null,"Longitude":250291.778,"Latitude":9363238.908},"geometry":{"type":"Point","coordinates":[-35.25478759897916,-5.75632292470724]}},{"type":"Feature","properties":{"DepAdmin":"Escola Municipal","NomeInsti":"Padre Tiago Thheisen","Nível":null,"Telefone":null,"Endereco":"Rua Capanema","CEP":59115150,"Bairro":"Nossa Senhora da Apresentação","Zona":"Norte","Prédio":"Proprio","Decreto_de":null,"Longitude":247300.72,"Latitude":9362941.683},"geometry":{"type":"Point","coordinates":[-35.28179222078162,-5.758902187373644]}},{"type":"Feature","properties":{"DepAdmin":"CMEI","NomeInsti":"Stella Lopes da Silva","Nível":"Infantil","Telefone":"Ramal: 3232-4822/4879","Endereco":"Rua dos Mororós, s/n","CEP":59138010,"Bairro":"Lagoa Azul","Zona":"Norte","Prédio":"Proprio","Decreto_de":"Nº 4.215      02/10/90","Longitude":248722.358,"Latitude":9365338.891},"geometry":{"type":"Point","coordinates":[-35.26887628183241,-5.737284421132459]}},{"type":"Feature","properties":{"DepAdmin":"CMEI","NomeInsti":"Maria Abigail Barros de Azevedo","Nível":"Infantil","Telefone":"Ramal: 3232-9471","Endereco":"Rua dos Repentistas, 3037","CEP":59138470,"Bairro":"Lagoa Azul","Zona":"Norte","Prédio":"Cedido pela FUNDAC","Decreto_de":"Nº 8.607         12/12/08","Longitude":249676.571,"Latitude":9365901.679},"geometry":{"type":"Point","coordinates":[-35.260244872292404,-5.732231300437774]}},{"type":"Feature","properties":{"DepAdmin":"CMEI","NomeInsti":"Evangelina Elita de Souza","Nível":"Infantil","Telefone":"Ramal: 3232-9461","Endereco":"Rua das Crendices, 1001","CEP":59135070,"Bairro":"Lagoa Azul","Zona":"Norte","Prédio":"Proprio","Decreto_de":"Nº 8.376 06/03/08","Longitude":250050.423,"Latitude":9365559.561},"geometry":{"type":"Point","coordinates":[-35.256883177016334,-5.735337137271233]}},{"type":"Feature","properties":{"DepAdmin":"CMEI","NomeInsti":"Maria da Piedade de Melo e Silva","Nível":"Infantil","Telefone":"Ramal: 3232-9460","Endereco":"Rua Bariri, 164","CEP":59135620,"Bairro":"Lagoa Azul","Zona":"Norte","Prédio":"Cedido pela FUNDAC","Decreto_de":"Nº 8.617 25/12/08","Longitude":250545.911,"Latitude":9366452.604},"geometry":{"type":"Point","coordinates":[-35.25237993735503,-5.727282212517576]}},{"type":"Feature","properties":{"DepAdmin":"CMEI","NomeInsti":"Maria Lucila Alves de Carvalho","Nível":"Infantil","Telefone":"Ramal: 3232-9465","Endereco":"Avenida Moema Tinoco da Cunha Lima, 4021","CEP":59136245,"Bairro":"Lagoa Azul","Zona":"Norte","Prédio":"Cedido pela Paroquia","Decreto_de":"Nº 8.617 25/12/08","Longitude":251030.67,"Latitude":9367354.27},"geometry":{"type":"Point","coordinates":[-35.24797336521306,-5.719148871441121]}},{"type":"Feature","properties":{"DepAdmin":"CMEI","NomeInsti":"Santa Cecília","Nível":"Infantil","Telefone":"Ramal: 3232-4581","Endereco":"Rua da Garoupa, s/n","CEP":null,"Bairro":"Pajuçara","Zona":"Norte","Prédio":"Proprio","Decreto_de":"Nº 8.617      25/12/08","Longitude":252075.59,"Latitude":9365469.058},"geometry":{"type":"Point","coordinates":[-35.2386099214545,-5.736227043229623]}},{"type":"Feature","properties":{"DepAdmin":"CMEI","NomeInsti":"Santa Mônica","Nível":"Infantil","Telefone":"Ramal:  3232-9469","Endereco":"Rua Visconde de Ouro Preto, 340","CEP":59131360,"Bairro":"Pajuçara","Zona":"Norte","Prédio":"Cedido pelo conselho comunitário","Decreto_de":"Nº 8.617      25/12/08","Longitude":251261.42,"Latitude":9367105.331},"geometry":{"type":"Point","coordinates":[-35.245899757720224,-5.721407292205707]}},{"type":"Feature","properties":{"DepAdmin":"CMEI","NomeInsti":"Maria Cleonice Alves Pontes","Nível":"Infantil","Telefone":"Ramal: 3232-9474","Endereco":"Av. Maranguape, 660","CEP":59112075,"Bairro":"Potengi","Zona":"Norte","Prédio":"Cedido pela FUNDAC","Decreto_de":"Nº 8.617 25/12/08","Longitude":249877.726,"Latitude":9362941.79},"geometry":{"type":"Point","coordinates":[-35.258535007642124,-5.758993880776018]}},{"type":"Feature","properties":{"DepAdmin":"CMEI","NomeInsti":"Paulina Engrácia Mariz de Faria","Nível":"Infantil","Telefone":"Ramal: 3232-9467","Endereco":"Rua Laurentino, 142","CEP":59112300,"Bairro":"Potengi","Zona":"Norte","Prédio":"Proprio","Decreto_de":"Nº 8.376 06.03.08","Longitude":249426.657,"Latitude":9363359.559},"geometry":{"type":"Point","coordinates":[-35.26259094272889,-5.755201386076426]}},{"type":"Feature","properties":{"DepAdmin":"CMEI","NomeInsti":"Marluce Carlos de Melo","Nível":"Infantil","Telefone":"Ramal: 3232-9466","Endereco":"Rua Manoel Pacifico de Medeiros, s/n","CEP":59110470,"Bairro":"Lagoa Azul","Zona":"Norte","Prédio":"Cedido pela FUNDAC","Decreto_de":"Nº 8.617 25/12/08","Longitude":249978.88,"Latitude":9363744.945},"geometry":{"type":"Point","coordinates":[-35.25759343897932,-5.751737512195808]}},{"type":"Feature","properties":{"DepAdmin":"CMEI","NomeInsti":"Selva Capistrano Lopes da Silva","Nível":"Infantil","Telefone":"Ramal:  3232-9470","Endereco":"Rua Porto de Ilhéus, 1249","CEP":59127190,"Bairro":"Potengi","Zona":"Norte","Prédio":"Cedido pela FUNDAC","Decreto_de":"Nº 8.617      25/12/08","Longitude":250430.815,"Latitude":9364186.002},"geometry":{"type":"Point","coordinates":[-35.25349908481354,-5.747766762463009]}},{"type":"Feature","properties":{"DepAdmin":"CMEI","NomeInsti":"Antonio G. de Melo","Nível":"Infantil","Telefone":"Fone: 3202-1926 e Ramal: 3232-4800","Endereco":"Rua Alto Paraná, 1","CEP":59124270,"Bairro":"Potengi","Zona":"Norte","Prédio":"Proprio","Decreto_de":"Nº 8.617      24/12/08","Longitude":250829.252,"Latitude":9364642.792},"geometry":{"type":"Point","coordinates":[-35.249887043393954,-5.74365184842381]}},{"type":"Feature","properties":{"DepAdmin":"CMEI","NomeInsti":"Terezinha Linhares Faustino","Nível":"Infantil","Telefone":null,"Endereco":"Travessa Padre José, s/n","CEP":59122191,"Bairro":"Redinha","Zona":"Norte","Prédio":"Alugado","Decreto_de":"Nº 7.842      16/01/06","Longitude":255149.399,"Latitude":9364780.77},"geometry":{"type":"Point","coordinates":[-35.21089332542245,-5.742556795717267]}},{"type":"Feature","properties":{"DepAdmin":"CMEI","NomeInsti":"Luiz Gonzaga Diniz Filho","Nível":"Infantil","Telefone":"Ramal: 3232-8193","Endereco":"Rua Heleno Lopes da Silva, s/n","CEP":59122339,"Bairro":"Pajuçara","Zona":"Norte","Prédio":"Proprio","Decreto_de":"Nº 8.617 25/12/08","Longitude":253281.302,"Latitude":9364924.588},"geometry":{"type":"Point","coordinates":[-35.22774776399116,-5.741191271927748]}},{"type":"Feature","properties":{"DepAdmin":"CMEI","NomeInsti":"Vulpiano Cavalcanti de Araujo","Nível":"Infantil","Telefone":null,"Endereco":"Rua Sebastião Gonçalves","CEP":59106080,"Bairro":"N. Sra. da Apresentacao","Zona":"Norte","Prédio":"Alugado","Decreto_de":"Nº 8.617 25/12/08","Longitude":248385.679,"Latitude":9362055.981},"geometry":{"type":"Point","coordinates":[-35.272032470193544,-5.766947384890983]}},{"type":"Feature","properties":{"DepAdmin":"CMEI","NomeInsti":"Maria Celoni Campos","Nível":"Infantil","Telefone":"Ramal: 3232-9443","Endereco":"Rua Baía Formosa, 1517","CEP":59063060,"Bairro":"Lagoa Nova","Zona":"Sul","Prédio":"Cedido Conselho Comunitário","Decreto_de":"Nº 8.617 25/12/08","Longitude":253847.87,"Latitude":9356008.753},"geometry":{"type":"Point","coordinates":[-35.2229491864145,-5.821806224214332]}},{"type":"Feature","properties":{"DepAdmin":"CMEI","NomeInsti":"Vilma Teixeira Dourado Dutra","Nível":"Infantil","Telefone":"Ramal: 3232-6414","Endereco":"Rua dos Amarantos, 156","CEP":59078110,"Bairro":"Capim Macio","Zona":"Sul","Prédio":"Proprio","Decreto_de":"Nº 8.376    06/03/08","Longitude":255720.146,"Latitude":9353883.083},"geometry":{"type":"Point","coordinates":[-35.206124674304675,-5.841087875077499]}},{"type":"Feature","properties":{"DepAdmin":"CMEI","NomeInsti":"Moema Tinoco da Cunha Lima","Nível":"Infantil","Telefone":"Ramal: 3232-8376","Endereco":"Rua Jacuí, 2017","CEP":null,"Bairro":"Neópolis","Zona":"Sul","Prédio":"Cedido pela Fundac","Decreto_de":"Nº 8.376 06/03/08","Longitude":255741.069,"Latitude":9351893.742},"geometry":{"type":"Point","coordinates":[-35.206006321041876,-5.859071505849085]}},{"type":"Feature","properties":{"DepAdmin":"CMEI","NomeInsti":"Carmem Maria Reis","Nível":"Infantil","Telefone":"Ramal: 3232-4812","Endereco":"Rua João de Deus de Lima, S/N","CEP":59090318,"Bairro":"Ponta Negra","Zona":"Sul","Prédio":"Alugado","Decreto_de":"Nº 7.361 10/03/04","Longitude":259699.762,"Latitude":9348742.458},"geometry":{"type":"Point","coordinates":[-35.17038153099258,-5.887698156840572]}},{"type":"Feature","properties":{"DepAdmin":"CMEI","NomeInsti":"Haydee M. Bezerra de Melo","Nível":"Infantil","Telefone":"Ramal: 3232-8413","Endereco":"Rua José Seledom,70","CEP":59090215,"Bairro":"Ponta Negra","Zona":"Sul","Prédio":"Proprio","Decreto_de":"Nº 8.376 06/03/08","Longitude":260255.729,"Latitude":9348949.072},"geometry":{"type":"Point","coordinates":[-35.165355265864136,-5.8858499144184]}},{"type":"Feature","properties":{"DepAdmin":"CMEI","NomeInsti":"Amor de Mãe","Nível":"Infantil","Telefone":"Ramal: 3232-8616","Endereco":"Rua Feliciano Dias, 239","CEP":59010070,"Bairro":"Praia do Meio","Zona":"Leste","Prédio":"Proprio","Decreto_de":"Nº 8.375 07/03/2008","Longitude":256747.92,"Latitude":9361102},"geometry":{"type":"Point","coordinates":[-35.196594390337495,-5.775867443672922]}},{"type":"Feature","properties":{"DepAdmin":"CMEI","NomeInsti":"Darilene Brandão Martins","Nível":"Infantil","Telefone":null,"Endereco":"Rua Agostinho Leitão, 322","CEP":59040090,"Bairro":"Alecrim","Zona":"Leste","Prédio":"Alugado","Decreto_de":"Nº 8.617 25/12/08","Longitude":254114.368,"Latitude":9359085.894},"geometry":{"type":"Point","coordinates":[-35.22043474868935,-5.793999751925196]}},{"type":"Feature","properties":{"DepAdmin":"CMEI","NomeInsti":"Carla Aparecida Albernaz Bandeira","Nível":"Infantil","Telefone":"Ramal: 3232-9482","Endereco":"Rua Doutor Nilo Bezerra Ramalho, 585","CEP":59015300,"Bairro":"Tirol","Zona":"Leste","Prédio":"Cedido pelo Conselho Comunitário","Decreto_de":"Nº 8.617      25/12/08","Longitude":256776.242,"Latitude":9356992.54},"geometry":{"type":"Point","coordinates":[-35.19648239106887,-5.813016702469204]}},{"type":"Feature","properties":{"DepAdmin":"CMEI","NomeInsti":"Nossa Senhora de Santana","Nível":"Infantil","Telefone":"Ramal: 3232-9495","Endereco":"Rua Alfredo Edeltrudes, 2300","CEP":59042110,"Bairro":"Nordeste","Zona":"Oeste","Prédio":"Cedido pela FUNDAC","Decreto_de":"Nº 8.617 25/12/08","Longitude":252049.633,"Latitude":9358534.181},"geometry":{"type":"Point","coordinates":[-35.23909009179676,-5.798913558922297]}},{"type":"Feature","properties":{"DepAdmin":"CMEI","NomeInsti":"Frei Damiao","Nível":"Infantil","Telefone":"Ramal: 3232-9493","Endereco":"Avenida Industrial João Francisco Motta, 1185","CEP":59060480,"Bairro":"Bom Pastor","Zona":"Oeste","Prédio":"Proprio","Decreto_de":"Nº 8.376 06/03/08","Longitude":251590.52,"Latitude":9357493.893},"geometry":{"type":"Point","coordinates":[-35.24327110469938,-5.808300735689097]}},{"type":"Feature","properties":{"DepAdmin":"CMEI","NomeInsti":"Raquel Maria Filgueira","Nível":"Infantil","Telefone":"Ramal: 3232-9442","Endereco":"Avenida Lima e Silva, 1002","CEP":null,"Bairro":"N. Sra. de Nazaré","Zona":"Oeste","Prédio":"Alugado","Decreto_de":"Nº 8.617 25/12/08","Longitude":252695.021,"Latitude":9356599.182},"geometry":{"type":"Point","coordinates":[-35.233333902998254,-5.816427930400221]}},{"type":"Feature","properties":{"DepAdmin":"CMEI","NomeInsti":"Irmã Dulce","Nível":"Infantil","Telefone":"Ramal: 3232-9440","Endereco":"Rua Pedrinho Bezerra, 477","CEP":null,"Bairro":"Felipe Camarão","Zona":"Oeste","Prédio":"Proprio","Decreto_de":"Nº 8.376 06/03/08","Longitude":250398.402,"Latitude":9355740.714},"geometry":{"type":"Point","coordinates":[-35.254094053631896,-5.824105486254015]}},{"type":"Feature","properties":{"DepAdmin":"CMEI","NomeInsti":"Jesiel Figueiredo","Nível":"Infantil","Telefone":"Ramal: 3232-9441","Endereco":"Avenida Pernambuco, 1","CEP":59070300,"Bairro":"Cidade da Esperança","Zona":"Oeste","Prédio":"Proprio","Decreto_de":"Nº 8.376 06/03/08","Longitude":252502.412,"Latitude":9355561.531},"geometry":{"type":"Point","coordinates":[-35.235109475587926,-5.825800845538187]}},{"type":"Feature","properties":{"DepAdmin":"CMEI","NomeInsti":"Saturnina Alves de Lucena","Nível":"Infantil","Telefone":"Ramal: 3232-9445","Endereco":"Rua Dantas Barreto, 625","CEP":59072590,"Bairro":"Cidade Nova","Zona":"Oeste","Prédio":"Proprio","Decreto_de":"Nº 8.376    06/03/08","Longitude":251747.697,"Latitude":9354501.862},"geometry":{"type":"Point","coordinates":[-35.241959687567544,-5.835352553410321]}},{"type":"Feature","properties":{"DepAdmin":"CMEI","NomeInsti":"Marise Paiva de Morais","Nível":"Infantil","Telefone":"Ramal: 3232-4779/3205-3036","Endereco":"Av. Solange Nunes do Nascimento, 259","CEP":59072500,"Bairro":"Cidade Nova","Zona":"Oeste","Prédio":"Proprio","Decreto_de":"Nº 7.134 20/01/03","Longitude":251937.203,"Latitude":9354795.369},"geometry":{"type":"Point","coordinates":[-35.24023862093429,-5.832706235624637]}},{"type":"Feature","properties":{"DepAdmin":"CMEI","NomeInsti":"Marilanda Bezerra de Paiva","Nível":"Infantil","Telefone":"Fone: 3618-0257","Endereco":"Rua da Lagoa Seca, 316","CEP":59074750,"Bairro":"Guarapes","Zona":"Oeste","Prédio":"Proprio","Decreto_de":"Nº 6.710 28.03.01","Longitude":247999.364,"Latitude":9353777.622},"geometry":{"type":"Point","coordinates":[-35.27581923599361,-5.841763214651367]}},{"type":"Feature","properties":{"DepAdmin":"CMEI","NomeInsti":"Clea Bezerra de Melo","Nível":"Infantil","Telefone":"Ramal: 3232-4347","Endereco":"Rua Jerusalém, 31","CEP":59074745,"Bairro":"Guarapes","Zona":"Oeste","Prédio":"Cedido","Decreto_de":"Nº 8.376 06/03/08","Longitude":247799.658,"Latitude":9354186.159},"geometry":{"type":"Point","coordinates":[-35.27760689508437,-5.838063072254647]}},{"type":"Feature","properties":{"DepAdmin":"CMEI","NomeInsti":"Maria Salete Alves Bila","Nível":"Infantil","Telefone":"Ramal: 3232-4760","Endereco":"Rua Abreulândia, s/n","CEP":59073090,"Bairro":"Planalto","Zona":"Oeste","Prédio":"Proprio","Decreto_de":"Nº 6.425 16/07/99","Longitude":250271.097,"Latitude":9353012.512},"geometry":{"type":"Point","coordinates":[-35.25534173407713,-5.848761978717357]}},{"type":"Feature","properties":{"DepAdmin":"CMEI","NomeInsti":"Maria Ilka Soares da Silva","Nível":"Infantil","Telefone":"Ramal: 3232-9444","Endereco":"Rua Claudionor Figueiredo, 297","CEP":59075260,"Bairro":"Nova Descoberta","Zona":"Sul","Prédio":"Alugado","Decreto_de":"Nº 8.617 25/12/08","Longitude":256158.608,"Latitude":9355499.517},"geometry":{"type":"Point","coordinates":[-35.20210981933188,-5.82649140577303]}},{"type":"Feature","properties":{"DepAdmin":"CMEI","NomeInsti":"Claudia Oliveirea de Farias","Nível":"Infantil","Telefone":"Ramal: 3232-9481","Endereco":"Rua Esplanada Silva Jardim, 169","CEP":59012090,"Bairro":"Ribeira","Zona":"Leste","Prédio":"Proprio","Decreto_de":"Nº 8.617 25/12/08","Longitude":256125.279,"Latitude":9361160.193},"geometry":{"type":"Point","coordinates":[-35.20221206878822,-5.775319645159712]}},{"type":"Feature","properties":{"DepAdmin":"CMEI","NomeInsti":"Galdina Barbosa Silveira Guimarães","Nível":"Infantil","Telefone":"Ramal: 3232- 8618","Endereco":"Rua João XXIII, 1565","CEP":59014000,"Bairro":"Mãe Luiza","Zona":"Leste","Prédio":"Proprio","Decreto_de":"Nº 8.376 06/03/08","Longitude":258103.998,"Latitude":9358512.331},"geometry":{"type":"Point","coordinates":[-35.184444804341126,-5.7993246451846]}},{"type":"Feature","properties":{"DepAdmin":"CMEI","NomeInsti":"Bom Samaritano","Nível":"Infantil","Telefone":"Ramal:  3232-9500","Endereco":"Rua Marcos Cavalcante, 102","CEP":59035050,"Bairro":"Quintas","Zona":"Oeste","Prédio":"Alugado","Decreto_de":"Nº 8.617 24/12/08","Longitude":252492.876,"Latitude":9358476.139},"geometry":{"type":"Point","coordinates":[-35.23509155849844,-5.799454039734485]}},{"type":"Feature","properties":{"DepAdmin":"CMEI","NomeInsti":"Francisca Anastácia de Souto","Nível":"Infantil","Telefone":"Ramal: 3232-9494","Endereco":"Rua dos Caicós, 2002","CEP":59037700,"Bairro":"N. Sra. de Nazaré","Zona":"Oeste","Prédio":"Alugado","Decreto_de":"Nº 8.617 25/12/08","Longitude":253012.284,"Latitude":9356867.025},"geometry":{"type":"Point","coordinates":[-35.230460734561674,-5.814018100322261]}},{"type":"Feature","properties":{"DepAdmin":"CMEI","NomeInsti":"Maria Itacira Bento","Nível":"Infantil","Telefone":"Ramal: 3232-9451","Endereco":"Avenida Solange Nunes do Nascimento, 238","CEP":59072500,"Bairro":"Cidade Nova","Zona":"Oeste","Prédio":"Alugado","Decreto_de":"Nº 8.617 25/12/08","Longitude":251913.32,"Latitude":9354869.666},"geometry":{"type":"Point","coordinates":[-35.240451525136955,-5.832033777441175]}},{"type":"Feature","properties":{"DepAdmin":"CMEI","NomeInsti":"José Carlos Bezerra de Jesus Filho","Nível":"Infantil","Telefone":"Ramal: 3232-7758","Endereco":"Rua Bela Vista, 701","CEP":59104210,"Bairro":"Igapó","Zona":"Norte","Prédio":"Proprio","Decreto_de":"Nº 8.161 29/05/07","Longitude":249567.414,"Latitude":9361659.259},"geometry":{"type":"Point","coordinates":[-35.261381471137796,-5.770575958924175]}},{"type":"Feature","properties":{"DepAdmin":"CMEI","NomeInsti":"Carmem Fernandes Pedroza","Nível":"Infantil","Telefone":"Ramal: 3205-6813","Endereco":"Rua Josino Galvão, 115","CEP":59074320,"Bairro":"Felipe Camarão","Zona":"Oeste","Prédio":"Proprio","Decreto_de":"Nº 8.160 29/05/07","Longitude":249932.386,"Latitude":9355841.346},"geometry":{"type":"Point","coordinates":[-35.258296685953205,-5.823178998451223]}},{"type":"Feature","properties":{"DepAdmin":"CMEI","NomeInsti":"Maria Eulalia Gomes da Silva","Nível":"Infantil","Telefone":null,"Endereco":"Rua Joquim Alves, 120","CEP":59025450,"Bairro":"Alecrim","Zona":"Leste","Prédio":"Alugado","Decreto_de":"Nº 8.376 06/03/08","Longitude":254745.485,"Latitude":9359801.583},"geometry":{"type":"Point","coordinates":[-35.214713215790376,-5.787552514277274]}},{"type":"Feature","properties":{"DepAdmin":"CMEI","NomeInsti":"Claudete Costa Maciel","Nível":"Infantil","Telefone":"Ramal: 3232-8403","Endereco":"Rua Serra dos Carajas, 3160","CEP":59068150,"Bairro":"Pitimbu","Zona":"Sul","Prédio":"Proprio","Decreto_de":"Nº 8.376 06/03/08","Longitude":251383.025,"Latitude":9352390.392},"geometry":{"type":"Point","coordinates":[-35.24532741798684,-5.854425808866986]}},{"type":"Feature","properties":{"DepAdmin":"CMEI","NomeInsti":"Maria do Socorro Lima","Nível":"Infantil","Telefone":"Ramal: 3232-9501","Endereco":"Rua dos Paiatis, 1797","CEP":null,"Bairro":"Quintas","Zona":"Oeste","Prédio":"Alugado","Decreto_de":"Nº 8.617 25/12/08","Longitude":253220.03,"Latitude":9358240.938},"geometry":{"type":"Point","coordinates":[-35.22853678552759,-5.801606024486379]}},{"type":"Feature","properties":{"DepAdmin":"CMEI","NomeInsti":"Elaine do N. Lopes","Nível":"Infantil","Telefone":"Ramal: 3232-9490","Endereco":"Trav. 13 de Maio, 16","CEP":59054115,"Bairro":"Dix-sept Rosado","Zona":"Oeste","Prédio":"Cedido pelo Conselho Comunitário","Decreto_de":"Nº 8.617 24/12/08","Longitude":253361.551,"Latitude":9357306.121},"geometry":{"type":"Point","coordinates":[-35.22729263100519,-5.81006133737705]}},{"type":"Feature","properties":{"DepAdmin":"CMEI","NomeInsti":"Francisca Célia Martins de Souza","Nível":"Infantil","Telefone":"Ramal: 3232-8239","Endereco":"Rua Maria do Carmo de Souza, 134","CEP":59155595,"Bairro":"N. Sra. da Apresentação","Zona":"Norte","Prédio":"Proprio","Decreto_de":"Nº 8.426 19/05/08","Longitude":247453.316,"Latitude":9363443.315},"geometry":{"type":"Point","coordinates":[-35.280396980697546,-5.754373351692177]}},{"type":"Feature","properties":{"DepAdmin":"CMEI","NomeInsti":"Sabino Gentille","Nível":"Infantil","Telefone":"Ramal: 3232-8199","Endereco":"Rua da Garoupa, 365 - Parque das Dunas II","CEP":59132310,"Bairro":"Pajuçara","Zona":"Norte","Prédio":"Proprio","Decreto_de":"Nº 8.516 27.08.08","Longitude":252386.75,"Latitude":9365992.959},"geometry":{"type":"Point","coordinates":[-35.23578333965185,-5.731502228298974]}},{"type":"Feature","properties":{"DepAdmin":"CMEI","NomeInsti":"Rosalba Dias de Barros","Nível":"Infantil","Telefone":"Ramal: 3232-9462","Endereco":"Rua Salvador, 2955","CEP":59124150,"Bairro":"Potengi","Zona":"Norte","Prédio":"Proprio","Decreto_de":"Nº 8.617 25/12/08","Longitude":251162.608,"Latitude":9364091.061},"geometry":{"type":"Point","coordinates":[-35.246898140124095,-5.748651002884394]}},{"type":"Feature","properties":{"DepAdmin":"CMEI","NomeInsti":"Maria de Fátima Medeiros de Araújo","Nível":"Infantil","Telefone":"Ramal: 3232-4384","Endereco":"Rua do Fandango, 3145 - Conj. Nova Natal","CEP":59139090,"Bairro":"Lagoa Azul","Zona":"Norte","Prédio":"Proprio","Decreto_de":"Nº 8.427 19/05/08","Longitude":249523.576,"Latitude":9366073.695},"geometry":{"type":"Point","coordinates":[-35.26161945470594,-5.730670942886325]}},{"type":"Feature","properties":{"DepAdmin":"CMEI","NomeInsti":"Arnaldo Arsérnio de Azevedo","Nível":"Infantil","Telefone":"Ramal: 3232-5640","Endereco":"Rua Bom Jesus","CEP":59074846,"Bairro":"Guarapes","Zona":"Oeste","Prédio":"Proprio","Decreto_de":"Nº 9.297      29/12/10","Longitude":249266.398,"Latitude":9354270.514},"geometry":{"type":"Point","coordinates":[-35.264364822791784,-5.837354050300955]}},{"type":"Feature","properties":{"DepAdmin":"CMEI","NomeInsti":"Antonia Fernanda Jalles","Nível":"Infantil","Telefone":"Ramal: 3232-3072","Endereco":"Rua Rio Suassuí, 7701, conjunto Cidade Satélite","CEP":59068320,"Bairro":"Pitimbu","Zona":"Sul","Prédio":"Proprio","Decreto_de":"Nº 9.588   13/12/2011","Longitude":251919.925,"Latitude":9352387.484},"geometry":{"type":"Point","coordinates":[-35.240481147750906,-5.85447147878252]}},{"type":"Feature","properties":{"DepAdmin":"CMEI","NomeInsti":"Jesus Bom Pastor","Nível":"Infantil","Telefone":"Ramal: 3232-9447","Endereco":"Rua Hermita Cansanção, 56","CEP":59062170,"Bairro":"N. Sra. de Nazaré","Zona":"Oeste","Prédio":"Cedido pela Paroquia","Decreto_de":"Nº 8.617 24/12/08","Longitude":252727.273,"Latitude":9357048.853},"geometry":{"type":"Point","coordinates":[-35.23302676271778,-5.812364296848722]}},{"type":"Feature","properties":{"DepAdmin":"CMEI","NomeInsti":"Joao Perestrello","Nível":"Infantil","Telefone":"orelhão: 3202-2360","Endereco":"Rua João XXIII, 10","CEP":59001400,"Bairro":"Mãe Luiza","Zona":"Leste","Prédio":"Cedido","Decreto_de":"Nº 9.375 04/05/2011","Longitude":257486.195,"Latitude":9359165.352},"geometry":{"type":"Point","coordinates":[-35.18999836389009,-5.793399961644555]}},{"type":"Feature","properties":{"DepAdmin":"CMEI","NomeInsti":"Jose Alencar Gomes da Silva","Nível":"Infantil","Telefone":null,"Endereco":"Avenida Solange Nunes do Nascimento, 455","CEP":59072500,"Bairro":"Cidade Nova","Zona":"Oeste","Prédio":"Proprio","Decreto_de":"Nº 9.375 04/05/2011","Longitude":251702.439,"Latitude":9354567.834},"geometry":{"type":"Point","coordinates":[-35.24236583473851,-5.834754581338285]}},{"type":"Feature","properties":{"DepAdmin":"CMEI","NomeInsti":"Katia Fagundes Garcia","Nível":"Infantil","Telefone":"Ramal: 3232-1529","Endereco":"Rua Profª Ana Djanira, 1960","CEP":59065040,"Bairro":"Candelária","Zona":"Sul","Prédio":"Alugado","Decreto_de":"Nº 9.132 10/07/10","Longitude":254353.604,"Latitude":9353643.529},"geometry":{"type":"Point","coordinates":[-35.218468376576666,-5.843204771635519]}},{"type":"Feature","properties":{"DepAdmin":"CMEI","NomeInsti":"Libania Medeiros","Nível":"Infantil","Telefone":"Ramal: 3232-3070","Endereco":"Rua Governador Valadares, 4858, Conj. Pirangi","CEP":59088010,"Bairro":"Neópolis","Zona":"Sul","Prédio":"Proprio","Decreto_de":"Nº 9.375 04/05/2011","Longitude":255490.855,"Latitude":9350660.39},"geometry":{"type":"Point","coordinates":[-35.2083088363044,-5.870211618231497]}},{"type":"Feature","properties":{"DepAdmin":"CMEI","NomeInsti":"Mailde Ferreira Pinto Galvão","Nível":"Infantil","Telefone":"Ramal: 8786-8068","Endereco":"Rua Joinville, 58","CEP":59110270,"Bairro":"Potengi","Zona":"Norte","Prédio":"Proprio","Decreto_de":"Nº 10.238 31/03/2014","Longitude":250634.983,"Latitude":9363320.025},"geometry":{"type":"Point","coordinates":[-35.25168730004297,-5.755601919154038]}},{"type":"Feature","properties":{"DepAdmin":"CMEI","NomeInsti":"Maria das Graças Mota","Nível":"Infantil","Telefone":"Ramal: 3232-7711","Endereco":"Rua Salvador, 79","CEP":59104070,"Bairro":"Igapó","Zona":"Norte","Prédio":"Proprio","Decreto_de":"Nº 9.307 06/05/11 15/06/11","Longitude":250430.813,"Latitude":9361197.502},