{
"type": "FeatureCollection",
"name": "mupi",
"crs": { "type": "name", "properties": { "name": "urn:ogc:def:crs:OGC:1.3:CRS84" } },
"features": [
{ "type": "Feature", "properties": { "NOME": "BR-NAT-MU-001", "ENDERECO_A": "Rua Conselheiro Tristão", "ENDERECO_B": "Ponte Newton Navarro", "BAIRRO": "Redinha", "PONTO_DE_R": "Ponte Newton Navarro", "LATITUDE": 9364362.659, "LONGITUDE": 254967.451 }, "geometry": { "type": "Point", "coordinates": [ -35.212550000622201, -5.746330003374372 ] } },
{ "type": "Feature", "properties": { "NOME": "BR-NAT-MU-002", "ENDERECO_A": "Av. Pres. Café Filho", "ENDERECO_B": "Rua Esperança", "BAIRRO": "Santos Reis", "PONTO_DE_R": "Campo de Futebol Society", "LATITUDE": 9361799.971000001, "LONGITUDE": 256805.544 }, "geometry": { "type": "Point", "coordinates": [ -35.196050000728818, -5.769559999202792 ] } },
{ "type": "Feature", "properties": { "NOME": "BR-NAT-MU-003", "ENDERECO_A": "Via Costeira", "ENDERECO_B": null, "BAIRRO": "Parque das Dunas", "PONTO_DE_R": "Companhia Independente de Policiamento Turístico - CIPTUR", "LATITUDE": 9356557.643, "LONGITUDE": 258259.422 }, "geometry": { "type": "Point", "coordinates": [ -35.183110002949498, -5.817000000725892 ] } },
{ "type": "Feature", "properties": { "NOME": "BR-NAT-MU-004", "ENDERECO_A": "Via Costeira", "ENDERECO_B": null, "BAIRRO": "Parque das Dunas", "PONTO_DE_R": "Hotel Wish Natal", "LATITUDE": 9353650.678, "LONGITUDE": 258308.345 }, "geometry": { "type": "Point", "coordinates": [ -35.182769998422046, -5.843280002341852 ] } },
{ "type": "Feature", "properties": { "NOME": "BR-NAT-MU-005", "ENDERECO_A": "Av. Eng. Roberto Freire", "ENDERECO_B": "Rua Moacir da Cunha Melo", "BAIRRO": "Ponta Negra", "PONTO_DE_R": "Restaurante O Peixe", "LATITUDE": 9350521.001, "LONGITUDE": 258548.717 }, "geometry": { "type": "Point", "coordinates": [ -35.180709999731135, -5.871579999868959 ] } },
{ "type": "Feature", "properties": { "NOME": "BR-NAT-MU-006", "ENDERECO_A": "Av. Pref. Omar O'Grady", "ENDERECO_B": "Rua Doutor José Taváres da Silva", "BAIRRO": "Lagoa Nova", "PONTO_DE_R": "Canteiro Central, entrada do Parque Dom Novaldo Monte", "LATITUDE": 9352937.254000001, "LONGITUDE": 253537.523 }, "geometry": { "type": "Point", "coordinates": [ -35.22585999785165, -5.849559999272984 ] } },
{ "type": "Feature", "properties": { "NOME": "BR-NAT-MU-007", "ENDERECO_A": "Av. Prudente de Morais", "ENDERECO_B": null, "BAIRRO": "Candelária", "PONTO_DE_R": "Próximo ao Ginásio DED/ Presépio de Natal", "LATITUDE": 9354898.968, "LONGITUDE": 254461.48 }, "geometry": { "type": "Point", "coordinates": [ -35.217449996169812, -5.831860003783515 ] } },
{ "type": "Feature", "properties": { "NOME": "BR-NAT-MU-008", "ENDERECO_A": "R. Prof. Clementino Câmara, 518", "ENDERECO_B": "Rua Fonseca e Silva", "BAIRRO": "Alecrim", "PONTO_DE_R": "Canteiro Central, próximo ao retorno", "LATITUDE": 9359281.032, "LONGITUDE": 255083.578 }, "geometry": { "type": "Point", "coordinates": [ -35.211679996641969, -5.792270003598748 ] } },
{ "type": "Feature", "properties": { "NOME": "BR-NAT-MU-009", "ENDERECO_A": "Av. Antônio Basílio 3711", "ENDERECO_B": "Av. Rui Barbosa", "BAIRRO": "Lagoa Nova", "PONTO_DE_R": "Canteiro Central, próximo ao semáforo. Condominio Dorian Gray", "LATITUDE": 9356610.901000001, "LONGITUDE": 256020.2 }, "geometry": { "type": "Point", "coordinates": [ -35.20331999717785, -5.816439997633279 ] } },
{ "type": "Feature", "properties": { "NOME": "BR-NAT-MU-010", "ENDERECO_A": "Av. Hermes da Fonseca", "ENDERECO_B": null, "BAIRRO": "Tirol", "PONTO_DE_R": "16º Batalhão do Exército", "LATITUDE": 9358191.484, "LONGITUDE": 256245.598 }, "geometry": { "type": "Point", "coordinates": [ -35.201229997386349, -5.8021600002733 ] } },
{ "type": "Feature", "properties": { "NOME": "BR-NAT-MU-011", "ENDERECO_A": "Av. Prudente de Morais", "ENDERECO_B": "Av. Gov. Juvenal Lamartine", "BAIRRO": "Tirol", "PONTO_DE_R": "SENAI-RN", "LATITUDE": 9358916.927, "LONGITUDE": 255897.108 }, "geometry": { "type": "Point", "coordinates": [ -35.204350001369299, -5.795590001114782 ] } },
{ "type": "Feature", "properties": { "NOME": "BR-NAT-MU-012", "ENDERECO_A": "Av. Ayrton Senna", "ENDERECO_B": "Rua Delmiro Gouveia", "BAIRRO": "Neópolis", "PONTO_DE_R": "Posto Petrobras", "LATITUDE": 9351491.62, "LONGITUDE": 255838.621 }, "geometry": { "type": "Point", "coordinates": [ -35.205139999413596, -5.862710003724813 ] } },
{ "type": "Feature", "properties": { "NOME": "BR-NAT-MU-013", "ENDERECO_A": "Av. Engenheiro Roberto Freire", "ENDERECO_B": "Rota do Sol", "BAIRRO": "Ponta Negra", "PONTO_DE_R": "Rotatória - Em frente ao Ed. Dune Barcane", "LATITUDE": 9349828.912, "LONGITUDE": 258936.91 }, "geometry": { "type": "Point", "coordinates": [ -35.177229995409206, -5.877849996866272 ] } },
{ "type": "Feature", "properties": { "NOME": "BR-NAT-MU-014", "ENDERECO_A": "Av. Engenheiro Roberto Freire", "ENDERECO_B": "Rua Neuza Farache", "BAIRRO": "Capim Macio", "PONTO_DE_R": "Smart Fit", "LATITUDE": 9352109.103, "LONGITUDE": 256735.728 }, "geometry": { "type": "Point", "coordinates": [ -35.197020003745656, -5.85715999755906 ] } },
{ "type": "Feature", "properties": { "NOME": "BR-NAT-MU-015", "ENDERECO_A": "Av. Capitão-Mor Gouveia, 1859", "ENDERECO_B": "Rua Adolfo Gordo", "BAIRRO": "Cidade da Esperança", "PONTO_DE_R": "Canteiro Central ao lado da Mpas Rastreamento", "LATITUDE": 9356051.575, "LONGITUDE": 252750.798 }, "geometry": { "type": "Point", "coordinates": [ -35.232850000061518, -5.821380001604481 ] } },
{ "type": "Feature", "properties": { "NOME": "BR-NAT-MU-016", "ENDERECO_A": "Rota do Sol", "ENDERECO_B": "Rua Pedro Izidro de Medeiros", "BAIRRO": "Ponta Negra", "PONTO_DE_R": "Canteiro Central", "LATITUDE": 9348698.059, "LONGITUDE": 258577.983 }, "geometry": { "type": "Point", "coordinates": [ -35.180509996810216, -5.888060001213749 ] } },
{ "type": "Feature", "properties": { "NOME": "BR-NAT-MU-017", "ENDERECO_A": "Av. Prudente de Morais", "ENDERECO_B": "Rua Bento Gonçalves", "BAIRRO": "Candelária", "PONTO_DE_R": "Drogarias Globo", "LATITUDE": 9354290.7, "LONGITUDE": 254223.47 }, "geometry": { "type": "Point", "coordinates": [ -35.219619996750275, -5.837349999225498 ] } },
{ "type": "Feature", "properties": { "NOME": "BR-NAT-MU-018", "ENDERECO_A": "Rota do Sol", "ENDERECO_B": "Av. Estrela do Mar", "BAIRRO": "Ponta Negra", "PONTO_DE_R": "Curva em frente ao Cond. Sports Park", "LATITUDE": 9349146.898, "LONGITUDE": 258504.227 }, "geometry": { "type": "Point", "coordinates": [ -35.181160003501205, -5.883999999348866 ] } },
{ "type": "Feature", "properties": { "NOME": "BR-NAT-MU-019", "ENDERECO_A": "Av. Prudente de Morais", "ENDERECO_B": null, "BAIRRO": "Lagoa Nova", "PONTO_DE_R": "Arena das Dunas", "LATITUDE": 9355454.741, "LONGITUDE": 254572.297 }, "geometry": { "type": "Point", "coordinates": [ -35.216429999180988, -5.826839998655057 ] } },
{ "type": "Feature", "properties": { "NOME": "BR-NAT-MU-020", "ENDERECO_A": "Av. Prudente de Morais", "ENDERECO_B": "Av. Amintas Barros", "BAIRRO": "Candelária", "PONTO_DE_R": "Banco do Brasil", "LATITUDE": 9356297.066, "LONGITUDE": 254974.476 }, "geometry": { "type": "Point", "coordinates": [ -35.212769997619745, -5.819240000733023 ] } },
{ "type": "Feature", "properties": { "NOME": "BR-NAT-MU-021", "ENDERECO_A": "Av. Pref. Omar O'Grady", "ENDERECO_B": "Rua Lago da Pedra", "BAIRRO": "Pitimbú", "PONTO_DE_R": "Sest Senat", "LATITUDE": 9352142.626, "LONGITUDE": 252895.919 }, "geometry": { "type": "Point", "coordinates": [ -35.231680002359496, -5.856720004355012 ] } },
{ "type": "Feature", "properties": { "NOME": "BR-NAT-MU-022", "ENDERECO_A": "Av. Prudente de Morais", "ENDERECO_B": null, "BAIRRO": "Tirol", "PONTO_DE_R": "Palladio Residence", "LATITUDE": 9359320.237, "LONGITUDE": 256061.731 }, "geometry": { "type": "Point", "coordinates": [ -35.202849997299474, -5.791949998833668 ] } },
{ "type": "Feature", "properties": { "NOME": "BR-NAT-MU-023", "ENDERECO_A": "Av. Rodrigues Alves", "ENDERECO_B": "Rua Ceará Mirim", "BAIRRO": "Tirol", "PONTO_DE_R": "Sede Social América de Natal-RN", "LATITUDE": 9359013.43, "LONGITUDE": 256249.053 }, "geometry": { "type": "Point", "coordinates": [ -35.201170003068071, -5.79473000333195 ] } },
{ "type": "Feature", "properties": { "NOME": "BR-NAT-MU-024", "ENDERECO_A": "Av. Praia de Muriú", "ENDERECO_B": "Rua Pitagui", "BAIRRO": "Ponta Negra", "PONTO_DE_R": "Praça em frente ao Centro Espirita", "LATITUDE": 9349585.089, "LONGITUDE": 258253.275 }, "geometry": { "type": "Point", "coordinates": [ -35.18340999968926, -5.880030000809785 ] } },
{ "type": "Feature", "properties": { "NOME": "BR-NAT-MU-025", "ENDERECO_A": "Rua Walter Duarte Pereira", "ENDERECO_B": "Rua Alexandre Câmara", "BAIRRO": "Ponta Negra", "PONTO_DE_R": "Condomínio Ibiza", "LATITUDE": 9350787.252, "LONGITUDE": 257043.331 }, "geometry": { "type": "Point", "coordinates": [ -35.194290000958055, -5.869119998484929 ] } },
{ "type": "Feature", "properties": { "NOME": "BR-NAT-MU-026", "ENDERECO_A": "Av. Pres. Getúlio Vargas", "ENDERECO_B": "Rua Pinto Martins", "BAIRRO": "Petrópolis", "PONTO_DE_R": "Ladeira do Sol", "LATITUDE": 9360248.074, "LONGITUDE": 257129.513 }, "geometry": { "type": "Point", "coordinates": [ -35.193179999250312, -5.783600000486775 ] } },
{ "type": "Feature", "properties": { "NOME": "BR-NAT-MU-027", "ENDERECO_A": "Av. Gov. Silvio Pedroza", "ENDERECO_B": null, "BAIRRO": "Areia Preta", "PONTO_DE_R": "Edifício Atalaia", "LATITUDE": 9359658.132, "LONGITUDE": 257619.279 }, "geometry": { "type": "Point", "coordinates": [ -35.188779999611313, -5.788949995874436 ] } },
{ "type": "Feature", "properties": { "NOME": "BR-NAT-MU-028", "ENDERECO_A": "Rua Conselheiro Tristão", "ENDERECO_B": null, "BAIRRO": "Redinha", "PONTO_DE_R": "Carioca Churrasqueiras", "LATITUDE": 9364904.645, "LONGITUDE": 254376.987 }, "geometry": { "type": "Point", "coordinates": [ -35.217860000858501, -5.74141000373453 ] } },
{ "type": "Feature", "properties": { "NOME": "BR-NAT-MU-029", "ENDERECO_A": "Rua Conselheiro Tristão", "ENDERECO_B": null, "BAIRRO": "Redinha", "PONTO_DE_R": "Viaduto Ponte Newton Navarro", "LATITUDE": 9364519.43, "LONGITUDE": 254885.959 }, "geometry": { "type": "Point", "coordinates": [ -35.21327999572398, -5.744910004546035 ] } },
{ "type": "Feature", "properties": { "NOME": "BR-NAT-MU-030", "ENDERECO_A": "Av. Dr. João Medeiros Filho", "ENDERECO_B": "Rua Presidente Juscelino Kubitschek", "BAIRRO": "Igapó", "PONTO_DE_R": "Posto Petrobras", "LATITUDE": 9363652.338, "LONGITUDE": 252380.75 }, "geometry": { "type": "Point", "coordinates": [ -35.235920002915627, -5.752659998134143 ] } },
{ "type": "Feature", "properties": { "NOME": "BR-NAT-MU-031", "ENDERECO_A": "Av. Dr. João Medeiros Filho", "ENDERECO_B": "Rua Santa Fé", "BAIRRO": "Potengi", "PONTO_DE_R": "Lojas Cajarana", "LATITUDE": 9363268.208000001, "LONGITUDE": 251750.678 }, "geometry": { "type": "Point", "coordinates": [ -35.241620003610151, -5.756109997026091 ] } },
{ "type": "Feature", "properties": { "NOME": "BR-NAT-MU-032", "ENDERECO_A": "R. Des. João Vicente da Costa, 8862", "ENDERECO_B": "Via Costeira", "BAIRRO": "Ponta Negra", "PONTO_DE_R": "Canteiro Lateral em Frente ao Mangai", "LATITUDE": 9351062.598, "LONGITUDE": 258432.508 }, "geometry": { "type": "Point", "coordinates": [ -35.181739999493068, -5.866679998316644 ] } },
{ "type": "Feature", "properties": { "NOME": "BR-NAT-MU-033", "ENDERECO_A": "Av. Engenheiro Roberto Freire, 8751", "ENDERECO_B": null, "BAIRRO": "Capim Macio", "PONTO_DE_R": "Canteiro Central próximo ao retorno", "LATITUDE": 9351260.637, "LONGITUDE": 257871.203 }, "geometry": { "type": "Point", "coordinates": [ -35.186800002198744, -5.864869996874861 ] } },
{ "type": "Feature", "properties": { "NOME": "BR-NAT-MU-034", "ENDERECO_A": "Av. Dr. João Medeiros Filho", "ENDERECO_B": "Av. Maranguape", "BAIRRO": "Igapó", "PONTO_DE_R": "Honda Potiguar Norte", "LATITUDE": 9362561.074, "LONGITUDE": 250568.981 }, "geometry": { "type": "Point", "coordinates": [ -35.252310001201707, -5.76246000296312 ] } },
{ "type": "Feature", "properties": { "NOME": "BR-NAT-MU-035", "ENDERECO_A": "Rua Praia de Camboinhas", "ENDERECO_B": "Rua Praia Cristo Redentor", "BAIRRO": "Ponta Negra", "PONTO_DE_R": "Praça - Esquina com a Rua Praia de Tabatinga", "LATITUDE": 9350046.659, "LONGITUDE": 258607.061 }, "geometry": { "type": "Point", "coordinates": [ -35.180199996889506, -5.875869997045266 ] } },
{ "type": "Feature", "properties": { "NOME": "BR-NAT-MU-036", "ENDERECO_A": "Av. Amintas Barros, 1713", "ENDERECO_B": "Rua São José", "BAIRRO": "Lagoa Nova", "PONTO_DE_R": "Canteiro Central ao lado da Zamy Store", "LATITUDE": 9356371.413000001, "LONGITUDE": 254750.391 }, "geometry": { "type": "Point", "coordinates": [ -35.214790002690748, -5.818559995827847 ] } },
{ "type": "Feature", "properties": { "NOME": "BR-NAT-MU-037", "ENDERECO_A": "Av. Alm. Alexandrino de Alencar, 1001", "ENDERECO_B": "Rua São José", "BAIRRO": "Lagoa Seca", "PONTO_DE_R": "Canteiro Central em frente ao Bombeiro", "LATITUDE": 9357967.912, "LONGITUDE": 255364.571 }, "geometry": { "type": "Point", "coordinates": [ -35.20919000219579, -5.804150002089378 ] } },
{ "type": "Feature", "properties": { "NOME": "BR-NAT-MU-038", "ENDERECO_A": "Av. das Brancas Dunas, 46", "ENDERECO_B": "Av. Governador Tarcísio de Vasconcelos Maia", "BAIRRO": "Candelária", "PONTO_DE_R": "Canteiro Central, próximo ao semáforo.", "LATITUDE": 9353404.755000001, "LONGITUDE": 254544.914 }, "geometry": { "type": "Point", "coordinates": [ -35.216749999016834, -5.845369997545952 ] } },
{ "type": "Feature", "properties": { "NOME": "BR-NAT-MU-039", "ENDERECO_A": "Av. das Alagoas, 02", "ENDERECO_B": "Av. São Miguel dos Caribes", "BAIRRO": "Neópolis", "PONTO_DE_R": "Canteiro Central, próximo a rotatória", "LATITUDE": 9351191.153000001, "LONGITUDE": 255666.988 }, "geometry": { "type": "Point", "coordinates": [ -35.206699999288254, -5.865420004439377 ] } },
{ "type": "Feature", "properties": { "NOME": "BR-NAT-MU-040", "ENDERECO_A": "Av. Eng. Roberto Freire", "ENDERECO_B": "Rua Énico Monteiro", "BAIRRO": "Capim Macio", "PONTO_DE_R": "UNP", "LATITUDE": 9351671.022, "LONGITUDE": 257297.985 }, "geometry": { "type": "Point", "coordinates": [ -35.191960002934564, -5.861139995864852 ] } },
{ "type": "Feature", "properties": { "NOME": "BR-NAT-MU-041", "ENDERECO_A": "Rua Jaguarari", "ENDERECO_B": "Rua Eleusis Magnus Lopes Cardoso", "BAIRRO": "Candelária", "PONTO_DE_R": "Canteiro Central, próximo a ABO - Associação Brasileira de Odontologia", "LATITUDE": 9354813.447000001, "LONGITUDE": 253813.715 }, "geometry": { "type": "Point", "coordinates": [ -35.223300003225503, -5.832610003976217 ] } },
{ "type": "Feature", "properties": { "NOME": "BR-NAT-MU-042", "ENDERECO_A": "Av. Praia de Muriú", "ENDERECO_B": "Av. Praia de Tibau", "BAIRRO": "Ponta Negra", "PONTO_DE_R": "Canteiro Central da Av. Praia de Muriú", "LATITUDE": 9350061.959000001, "LONGITUDE": 257992.199 }, "geometry": { "type": "Point", "coordinates": [ -35.185749998897457, -5.875709998955996 ] } },
{ "type": "Feature", "properties": { "NOME": "BR-NAT-MU-043", "ENDERECO_A": "Av. Dr. João Medeiros Filho", "ENDERECO_B": "Av. Acaraú", "BAIRRO": "Igapó", "PONTO_DE_R": "Posto Petrobras", "LATITUDE": 9361991.355, "LONGITUDE": 250292.012 }, "geometry": { "type": "Point", "coordinates": [ -35.254829997958915, -5.767599998090426 ] } },
{ "type": "Feature", "properties": { "NOME": "BR-NAT-MU-044", "ENDERECO_A": "Av. Nevaldo Rocha 535", "ENDERECO_B": null, "BAIRRO": "Quintas", "PONTO_DE_R": "Canteiro Central", "LATITUDE": 9358171.77, "LONGITUDE": 252622.77 }, "geometry": { "type": "Point", "coordinates": [ -35.233930000934478, -5.802210002845437 ] } },
{ "type": "Feature", "properties": { "NOME": "BR-NAT-MU-045", "ENDERECO_A": "Av. Itapetinga", "ENDERECO_B": "Rua Itaboraí", "BAIRRO": "Potengi", "PONTO_DE_R": "Canteiro Central próximo a faixa de pedestre", "LATITUDE": 9364290.545, "LONGITUDE": 251224.777 }, "geometry": { "type": "Point", "coordinates": [ -35.246329997460656, -5.746849997373665 ] } },
{ "type": "Feature", "properties": { "NOME": "BR-NAT-MU-046", "ENDERECO_A": "Av. Itapetinga", "ENDERECO_B": "Rua Apiuna", "BAIRRO": "Potengi", "PONTO_DE_R": "Canteiro Central", "LATITUDE": 9364871.114, "LONGITUDE": 250886.754 }, "geometry": { "type": "Point", "coordinates": [ -35.249360003643233, -5.741589999654805 ] } },
{ "type": "Feature", "properties": { "NOME": "BR-NAT-MU-047", "ENDERECO_A": "Av. Antônio Basílio 2749", "ENDERECO_B": null, "BAIRRO": "Lagoa Nova", "PONTO_DE_R": "Canteiro Central, em frente a entrada do estacionamento Maxxi Atacado", "LATITUDE": 9356965.587, "LONGITUDE": 255063.813 }, "geometry": { "type": "Point", "coordinates": [ -35.211940003955817, -5.813200004443297 ] } },
{ "type": "Feature", "properties": { "NOME": "BR-NAT-MU-048", "ENDERECO_A": "Av. Capitão-Mor Gouveia", "ENDERECO_B": "Rua São José", "BAIRRO": "Lagoa Nova", "PONTO_DE_R": "Canteiro Central do Cruzamento - Salomão Estofados", "LATITUDE": 9355442.995, "LONGITUDE": 254398.407 }, "geometry": { "type": "Point", "coordinates": [ -35.217999999688942, -5.82693999867642 ] } },
{ "type": "Feature", "properties": { "NOME": "BR-NAT-MU-049", "ENDERECO_A": "Av. Romualdo Galvão, 943", "ENDERECO_B": "Rua Alm. Nelson Fernandes", "BAIRRO": "Lagoa Nova", "PONTO_DE_R": "Carnteiro Central, rotatória", "LATITUDE": 9358152.39, "LONGITUDE": 255864.628 }, "geometry": { "type": "Point", "coordinates": [ -35.204670004320747, -5.80250000348094 ] } },
{ "type": "Feature", "properties": { "NOME": "BR-NAT-MU-050", "ENDERECO_A": "Av. Paulistana, 1929", "ENDERECO_B": null, "BAIRRO": "Potengi", "PONTO_DE_R": "Canteiro Central, ao Lado do Panatis", "LATITUDE": 9362233.209000001, "LONGITUDE": 250185.793 }, "geometry": { "type": "Point", "coordinates": [ -35.25577999863291, -5.765409997518337 ] } },
{ "type": "Feature", "properties": { "NOME": "BR-NAT-MU-051", "ENDERECO_A": "Av. Maranguape, 237", "ENDERECO_B": null, "BAIRRO": "Nossa Sra. da Apresentação", "PONTO_DE_R": "Canteiro Central, próximo ao retorno", "LATITUDE": 9362678.327, "LONGITUDE": 250285.971 }, "geometry": { "type": "Point", "coordinates": [ -35.25485999856636, -5.761390004237579 ] } },
{ "type": "Feature", "properties": { "NOME": "BR-NAT-MU-052", "ENDERECO_A": "Av. Florianópolis, 2", "ENDERECO_B": null, "BAIRRO": "Potengi", "PONTO_DE_R": "Canteiro Central próximo da Av. Dr. João Medeiros Filho", "LATITUDE": 9362732.264, "LONGITUDE": 250777.722 }, "geometry": { "type": "Point", "coordinates": [ -35.250420004168269, -5.760920000561496 ] } },
{ "type": "Feature", "properties": { "NOME": "BR-NAT-MU-053", "ENDERECO_A": "Av. Guadalupe", "ENDERECO_B": null, "BAIRRO": "Potengi", "PONTO_DE_R": "Canteiro Central, Perto do Banco do Brasil", "LATITUDE": 9362720.029, "LONGITUDE": 250480.819 }, "geometry": { "type": "Point", "coordinates": [ -35.253100002095145, -5.761020004161328 ] } },
{ "type": "Feature", "properties": { "NOME": "BR-NAT-MU-054", "ENDERECO_A": "Av. Sr. do Bonfim", "ENDERECO_B": "Rua Santa Inês", "BAIRRO": "Potengi", "PONTO_DE_R": "Canteiro Central", "LATITUDE": 9363324.788000001, "LONGITUDE": 250666.799 }, "geometry": { "type": "Point", "coordinates": [ -35.251399995892619, -5.755560000916973 ] } },
{ "type": "Feature", "properties": { "NOME": "BR-NAT-MU-055", "ENDERECO_A": "Av. Solange Nunes do Nascimento, 238", "ENDERECO_B": "Av. Norte", "BAIRRO": "Cidade Esperança", "PONTO_DE_R": "Canteiro Central", "LATITUDE": 9354874.646, "LONGITUDE": 251947.814 }, "geometry": { "type": "Point", "coordinates": [ -35.240139997248292, -5.831990003203742 ] } },
{ "type": "Feature", "properties": { "NOME": "BR-NAT-MU-056", "ENDERECO_A": "Av. Alm. Alexandrino de Alencar, 1137", "ENDERECO_B": "Av. Romualdo Galvão", "BAIRRO": "Lagoa Nova", "PONTO_DE_R": "Canteiro Central próximo a faixa de pedestre", "LATITUDE": 9357735.808, "LONGITUDE": 255701.173 }, "geometry": { "type": "Point", "coordinates": [ -35.206159996234696, -5.806259999826891 ] } },
{ "type": "Feature", "properties": { "NOME": "BR-NAT-MU-057", "ENDERECO_A": "Av. Industrial João Francisco da Mota", "ENDERECO_B": "Rua Potycret", "BAIRRO": "Bom Pastor", "PONTO_DE_R": "Canteiro Central em frente a DVN Vidros", "LATITUDE": 9357649.192, "LONGITUDE": 251676.445 }, "geometry": { "type": "Point", "coordinates": [ -35.242490001525617, -5.806900000552201 ] } },
{ "type": "Feature", "properties": { "NOME": "BR-NAT-MU-058", "ENDERECO_A": "Av. Dedoro da Fonseca, 908", "ENDERECO_B": null, "BAIRRO": "Cidade Alta", "PONTO_DE_R": "Canteiro Central em frente ao CDF Colégio e Curso", "LATITUDE": 9359428.68, "LONGITUDE": 255500.695 }, "geometry": { "type": "Point", "coordinates": [ -35.207909998526183, -5.790950004560655 ] } },
{ "type": "Feature", "properties": { "NOME": "BR-NAT-MU-059", "ENDERECO_A": "Av. Capitão-Mor Gouveia, 2769", "ENDERECO_B": "Rua dos Potiguares", "BAIRRO": "Lagoa Nova", "PONTO_DE_R": "Canteiro Central em Frente a CTGAS-ER", "LATITUDE": 9355800.999, "LONGITUDE": 253448.651 }, "geometry": { "type": "Point", "coordinates": [ -35.226560003707363, -5.823669996493592 ] } },
{ "type": "Feature", "properties": { "NOME": "BR-NAT-MU-060", "ENDERECO_A": "Av. Lima e Silva, 1921", "ENDERECO_B": null, "BAIRRO": "Lago Nova", "PONTO_DE_R": "Canteiro Central em frente ao Hotel Ibis", "LATITUDE": 9355575.655, "LONGITUDE": 255221.035 }, "geometry": { "type": "Point", "coordinates": [ -35.210570002561781, -5.825769996541511 ] } },
{ "type": "Feature", "properties": { "NOME": "BR-NAT-MU-061", "ENDERECO_A": "Av. Sen. Salgado Filho, 1628", "ENDERECO_B": "Av. Antônio Basílio", "BAIRRO": "Lagoa Nova", "PONTO_DE_R": "Canteiro Central em Frente a Unimed", "LATITUDE": 9356722.607000001, "LONGITUDE": 255730.606 }, "geometry": { "type": "Point", "coordinates": [ -35.205929998584296, -5.815420003276182 ] } },
{ "type": "Feature", "properties": { "NOME": "BR-NAT-MU-062", "ENDERECO_A": "Av. Rui Barbosa", "ENDERECO_B": "Av. Alm. Alexandrino de Alencar", "BAIRRO": "Tirol", "PONTO_DE_R": "Canteiro Central próximo a faixa de pedestre. unasa Fundação Nacional de Saúde.", "LATITUDE": 9357463.928, "LONGITUDE": 256334.842 }, "geometry": { "type": "Point", "coordinates": [ -35.200450003687116, -5.808740000360925 ] } },
{ "type": "Feature", "properties": { "NOME": "BR-NAT-MU-063", "ENDERECO_A": "Rua Deodoro da Fonseca", "ENDERECO_B": "Rua Gen. Gustavo Cordeiro de Farias", "BAIRRO": "Ribeira", "PONTO_DE_R": "Canteiro Central em frente ao Cond. Mirante João Olimpio Filho", "LATITUDE": 9360710.455, "LONGITUDE": 256264.635 }, "geometry": { "type": "Point", "coordinates": [ -35.200970002961377, -5.779390000646999 ] } },
{ "type": "Feature", "properties": { "NOME": "BR-NAT-MU-064", "ENDERECO_A": "Rua Ernani da Silveira", "ENDERECO_B": "Rua Dr. Luis Coelho", "BAIRRO": "Alecrim", "PONTO_DE_R": "Canterio Central, próximo ao retorno. Baldo", "LATITUDE": 9359209.665, "LONGITUDE": 255505.979 }, "geometry": { "type": "Point", "coordinates": [ -35.207869997403733, -5.792930004592961 ] } },
{ "type": "Feature", "properties": { "NOME": "BR-NAT-MU-065", "ENDERECO_A": "Rua Deodoro da Fonseca 586", "ENDERECO_B": "Rua Ulisses Caldas", "BAIRRO": "Petrópolis", "PONTO_DE_R": "Canteiro Central, em frente a Unifacex", "LATITUDE": 9359966.984, "LONGITUDE": 255958.399 }, "geometry": { "type": "Point", "coordinates": [ -35.203759996316101, -5.786100002684888 ] } },
{ "type": "Feature", "properties": { "NOME": "BR-NAT-MU-066", "ENDERECO_A": "Av. Sen. Salgado Filho, 1553", "ENDERECO_B": "Rua Alberto Silva", "BAIRRO": "Tirol", "PONTO_DE_R": "Canteiro Central em frente ao Posto Shell", "LATITUDE": 9357268.692, "LONGITUDE": 255912.386 }, "geometry": { "type": "Point", "coordinates": [ -35.204270001423424, -5.810490000612582 ] } },
{ "type": "Feature", "properties": { "NOME": "BR-NAT-MU-067", "ENDERECO_A": "Av. Rodrigues Alves 775", "ENDERECO_B": "Rua Jundiaí", "BAIRRO": "Tirol", "PONTO_DE_R": "Canteiro Central, próximo ao cruzamento. Residencial Dakota", "LATITUDE": 9359518.592, "LONGITUDE": 256434.334 }, "geometry": { "type": "Point", "coordinates": [ -35.199480002402098, -5.790169998146184 ] } },
{ "type": "Feature", "properties": { "NOME": "BR-NAT-MU-068", "ENDERECO_A": "Av. Rodrigues Alves, 1188", "ENDERECO_B": "Rua Alberto Maranhão", "BAIRRO": "Tirol", "PONTO_DE_R": "Canteiro Central próximo a faixa de pedestre", "LATITUDE": 9358622.371, "LONGITUDE": 256105.434 }, "geometry": { "type": "Point", "coordinates": [ -35.202480001700913, -5.798260003944359 ] } },
{ "type": "Feature", "properties": { "NOME": "BR-NAT-MU-069", "ENDERECO_A": "Rua Oiti", "ENDERECO_B": "Rua da Gameleira", "BAIRRO": "Pitimbú", "PONTO_DE_R": "Canteiro Central, na rotatória. Rua Gameleira", "LATITUDE": 9350382.815, "LONGITUDE": 253792.483 }, "geometry": { "type": "Point", "coordinates": [ -35.223650000640127, -5.872660000222438 ] } },
{ "type": "Feature", "properties": { "NOME": "BR-NAT-MU-070", "ENDERECO_A": "Av. Das Brancas Dunas", "ENDERECO_B": "Alameda Boliviana", "BAIRRO": "Candelária", "PONTO_DE_R": "Canteiro Central, em frente ao Shopping Antaris", "LATITUDE": 9353635.463, "LONGITUDE": 254980.493 }, "geometry": { "type": "Point", "coordinates": [ -35.212810001956072, -5.843300002687147 ] } },
{ "type": "Feature", "properties": { "NOME": "BR-NAT-MU-071", "ENDERECO_A": "Av. Senador Salgado Filho 1792", "ENDERECO_B": "Av. Nascimento de Castro", "BAIRRO": "Lagoa Nova", "PONTO_DE_R": "Canteiro Central, próximo ao semáforo, Drogasil", "LATITUDE": 9356415.625, "LONGITUDE": 255588.887 }, "geometry": { "type": "Point", "coordinates": [ -35.207220004134186, -5.818190003728443 ] } },
{ "type": "Feature", "properties": { "NOME": "BR-NAT-MU-072", "ENDERECO_A": "Av. Prudente de Morais 2112", "ENDERECO_B": "Rua Desembargador Virgílio Dantas", "BAIRRO": "Barro Vermelho", "PONTO_DE_R": "Canteiro Central próximo a faixa de pedestre.", "LATITUDE": 9358315.443, "LONGITUDE": 255692.267 }, "geometry": { "type": "Point", "coordinates": [ -35.206220000852355, -5.801019997391503 ] } },
{ "type": "Feature", "properties": { "NOME": "BR-NAT-MU-073", "ENDERECO_A": "Av. Nascimento de Castro 1888", "ENDERECO_B": "Rua Jaguarari", "BAIRRO": "Lagoa Nova", "PONTO_DE_R": "Canteiro Central, próximo ao semáforo, Seu Camarão Potiguar", "LATITUDE": 9356825.148, "LONGITUDE": 254512.631 }, "geometry": { "type": "Point", "coordinates": [ -35.216919999286759, -5.814449997905554 ] } },
{ "type": "Feature", "properties": { "NOME": "BR-NAT-MU-074", "ENDERECO_A": "Av. Alm. Alexandrino de Alencar 644", "ENDERECO_B": "Rua Olinto Meira", "BAIRRO": "Alecrim", "PONTO_DE_R": "Canteiro Central próximo ao cruzamento. Drogarias Globo", "LATITUDE": 9358595.612, "LONGITUDE": 254915.63 }, "geometry": { "type": "Point", "coordinates": [ -35.213220000867196, -5.798460003110963 ] } },
{ "type": "Feature", "properties": { "NOME": "BR-NAT-MU-075", "ENDERECO_A": "Av. Brg. Gomes Ribeiro 2224", "ENDERECO_B": "Rua da Saudade", "BAIRRO": "Nova Descoberta", "PONTO_DE_R": "Canteiro Central", "LATITUDE": 9355837.082, "LONGITUDE": 256444.209 }, "geometry": { "type": "Point", "coordinates": [ -35.199519996420442, -5.823449998277966 ] } },
{ "type": "Feature", "properties": { "NOME": "BR-NAT-MU-076", "ENDERECO_A": "Av. Capitão Mor Gouveia 104", "ENDERECO_B": "Rua da Fluorita", "BAIRRO": "Lagoa Nova", "PONTO_DE_R": "Canteiro Central, ao lado do Ministério do Trabalho", "LATITUDE": 9355052.258, "LONGITUDE": 255466.816 }, "geometry": { "type": "Point", "coordinates": [ -35.208370001501329, -5.830510004204147 ] } },
{ "type": "Feature", "properties": { "NOME": "BR-NAT-MU-077", "ENDERECO_A": "Av. Presidente Café Filho", "ENDERECO_B": "Praça Miguel Catho", "BAIRRO": "Praia do Meio", "PONTO_DE_R": "Praça Miguel Carrilho em frente ao Posto Fan Posto", "LATITUDE": 9361023.072000001, "LONGITUDE": 257007.973 }, "geometry": { "type": "Point", "coordinates": [ -35.194249997513253, -5.77658999807286 ] } },
{ "type": "Feature", "properties": { "NOME": "BR-NAT-MU-078", "ENDERECO_A": "Av. Amintas Barros, 3678", "ENDERECO_B": "Av. Sen. Salgado Filho", "BAIRRO": "Lagoa Nova", "PONTO_DE_R": "Canteiro Central próximo ao antigo prédio Sams", "LATITUDE": 9356131.86, "LONGITUDE": 255443.756 }, "geometry": { "type": "Point", "coordinates": [ -35.208540004285439, -5.820750002805789 ] } },
{ "type": "Feature", "properties": { "NOME": "BR-NAT-MU-079", "ENDERECO_A": "Av. Miguel Castro, 782", "ENDERECO_B": "Rua dos Tororós", "BAIRRO": "Lagoa Nova", "PONTO_DE_R": "Canteiro Central, próximo ao semáforo", "LATITUDE": 9356361.913000001, "LONGITUDE": 254021.437 }, "geometry": { "type": "Point", "coordinates": [ -35.221369998360665, -5.818619997144198 ] } },
{ "type": "Feature", "properties": { "NOME": "BR-NAT-MU-080", "ENDERECO_A": "Av. dos Expedicionários", "ENDERECO_B": "Rua dos Jangadeiros", "BAIRRO": "Parque dos Coqueiros", "PONTO_DE_R": "Reservatório Caern", "LATITUDE": 9362364.422, "LONGITUDE": 247296.627 }, "geometry": { "type": "Point", "coordinates": [ -35.281849995569985, -5.764119999671697 ] } },
{ "type": "Feature", "properties": { "NOME": "BR-NAT-MU-081", "ENDERECO_A": "Av. Coronel Estevam, 2468", "ENDERECO_B": "Av. Antônio Basílio", "BAIRRO": "Dix-Sept Rosado", "PONTO_DE_R": "Canteiro Central, em frente a Escola Estadual Prof. Luiz Soares", "LATITUDE": 9357624.343, "LONGITUDE": 253227.64 }, "geometry": { "type": "Point", "coordinates": [ -35.228489997592568, -5.807180004346712 ] } },
{ "type": "Feature", "properties": { "NOME": "BR-NAT-MU-082", "ENDERECO_A": "R. Sílvio Pelico, 181", "ENDERECO_B": "R. Amaro Barreto", "BAIRRO": "Alecrim", "PONTO_DE_R": "Canteiro Central em frente ao Natal Palace", "LATITUDE": 9359105.465, "LONGITUDE": 254600.094 }, "geometry": { "type": "Point", "coordinates": [ -35.216050002303099, -5.79384000358212 ] } },
{ "type": "Feature", "properties": { "NOME": "BR-NAT-MU-083", "ENDERECO_A": "Av. Capitão-Mor Gouveia, 2160", "ENDERECO_B": null, "BAIRRO": "Lagoa Nova", "PONTO_DE_R": "Canteiro Central, próximo a faixa de pedestre em frente ao CAIC", "LATITUDE": 9355614.965, "LONGITUDE": 253963.443 }, "geometry": { "type": "Point", "coordinates": [ -35.22191999569791, -5.825369996125469 ] } },
{ "type": "Feature", "properties": { "NOME": "BR-NAT-MU-084", "ENDERECO_A": "Av. Afonso Pena, 827", "ENDERECO_B": "Rua Apodi", "BAIRRO": "Tirol", "PONTO_DE_R": "Canteiro Central, em frente ao DNA Center", "LATITUDE": 9359302.082, "LONGITUDE": 256514.944 }, "geometry": { "type": "Point", "coordinates": [ -35.198760001124327, -5.79213000322699 ] } },
{ "type": "Feature", "properties": { "NOME": "BR-NAT-MU-085", "ENDERECO_A": "Av. Hermes da Fonseca, 1106", "ENDERECO_B": "Rua Gov. Juvenal Lamartine", "BAIRRO": "Tirol", "PONTO_DE_R": "Canteiro Central próximo ao semáforo,", "LATITUDE": 9358750.929, "LONGITUDE": 256450.606 }, "geometry": { "type": "Point", "coordinates": [ -35.199359996092909, -5.797109995909276 ] } },
{ "type": "Feature", "properties": { "NOME": "BR-NAT-MU-086", "ENDERECO_A": "Av. Antônio Basílio, 1531", "ENDERECO_B": "Rua dos Potiguares", "BAIRRO": "Dix-Sept Rosado", "PONTO_DE_R": "Canteiro Central próximo ao semáforo,", "LATITUDE": 9357365.08, "LONGITUDE": 253969.855 }, "geometry": { "type": "Point", "coordinates": [ -35.221799997775342, -5.809549999415607 ] } },
{ "type": "Feature", "properties": { "NOME": "BR-NAT-MU-087", "ENDERECO_A": "Av. Presidente Café Filho", "ENDERECO_B": "Rua Professor José Malquíades", "BAIRRO": "Praia do Meio", "PONTO_DE_R": "Viaduto Próximo ao Bar do Ninho do Periquito", "LATITUDE": 9362029.807, "LONGITUDE": 256738.18 }, "geometry": { "type": "Point", "coordinates": [ -35.196649998312779, -5.767480001898316 ] } },
{ "type": "Feature", "properties": { "NOME": "BR-NAT-MU-088", "ENDERECO_A": "Av. Rodrigues Alves, 518", "ENDERECO_B": "Rua Mipibu", "BAIRRO": "Tirol", "PONTO_DE_R": "Canteiro Central em frente Petrópolis Restaurante", "LATITUDE": 9359874.206, "LONGITUDE": 256567.017 }, "geometry": { "type": "Point", "coordinates": [ -35.198270001602317, -5.786960004670388 ] } },
{ "type": "Feature", "properties": { "NOME": "BR-NAT-MU-089", "ENDERECO_A": "Av. Moema Tinoco da Cunha Lima", "ENDERECO_B": "Rua Ferreira de Souza", "BAIRRO": "Pajuçara", "PONTO_DE_R": "Canteiro Central, em frente a loja Roberto Rodas", "LATITUDE": 9365654.813, "LONGITUDE": 253270.458 }, "geometry": { "type": "Point", "coordinates": [ -35.227819995993556, -5.734590002329333 ] } },
{ "type": "Feature", "properties": { "NOME": "BR-NAT-MU-090", "ENDERECO_A": "Av. Mar do Norte", "ENDERECO_B": "Rua Radialista Jaime de Queiroz", "BAIRRO": "Pajuçara", "PONTO_DE_R": "Canteiro Central em frente a JM-Ferragens e Parafusos", "LATITUDE": 9366352.991, "LONGITUDE": 252451.093 }, "geometry": { "type": "Point", "coordinates": [ -35.235190001838092, -5.72824999807327 ] } },
{ "type": "Feature", "properties": { "NOME": "BR-NAT-MU-091", "ENDERECO_A": "Av. Campos Sáles 620", "ENDERECO_B": "Rua Mossoró", "BAIRRO": "Tirol", "PONTO_DE_R": "Canteiro Central, próximo ao cruzamento. Banco Santander", "LATITUDE": 9359790.575, "LONGITUDE": 256395.611 }, "geometry": { "type": "Point", "coordinates": [ -35.199819997960176, -5.787710002820584 ] } },
{ "type": "Feature", "properties": { "NOME": "BR-NAT-MU-092", "ENDERECO_A": "Av. Miguel Alcídes de Araújo, 1921", "ENDERECO_B": null, "BAIRRO": "Capim Macio", "PONTO_DE_R": "Canteiro Central, próximo ao Posto Atendimento Cosern", "LATITUDE": 9353137.944, "LONGITUDE": 255617.236 }, "geometry": { "type": "Point", "coordinates": [ -35.207079999204382, -5.847819997281055 ] } },
{ "type": "Feature", "properties": { "NOME": "BR-NAT-MU-093", "ENDERECO_A": "Av. Pôrto de Pedras", "ENDERECO_B": "Rua Juiz de For a", "BAIRRO": "Neópolis", "PONTO_DE_R": "Canteiro Central, próximo ao retorno", "LATITUDE": 9350766.662, "LONGITUDE": 255183.451 }, "geometry": { "type": "Point", "coordinates": [ -35.211079997848891, -5.869239997564635 ] } },
{ "type": "Feature", "properties": { "NOME": "BR-NAT-MU-094", "ENDERECO_A": "Av. Ayrton Senna, 3783", "ENDERECO_B": "Rua Caparaó", "BAIRRO": "Neópolis", "PONTO_DE_R": "Canteiro Central, próximo a rotatória", "LATITUDE": 9350555.416, "LONGITUDE": 256037.275 }, "geometry": { "type": "Point", "coordinates": [ -35.203379995957143, -5.871180003609919 ] } },
{ "type": "Feature", "properties": { "NOME": "BR-NAT-MU-095", "ENDERECO_A": "Av. da Integração", "ENDERECO_B": "Rua Jaguarari", "BAIRRO": "Candelária", "PONTO_DE_R": "Rotatória em frente ao Cond. Resid. Green Tower", "LATITUDE": 9354271.478, "LONGITUDE": 253557.724 }, "geometry": { "type": "Point", "coordinates": [ -35.225629996484919, -5.837500001286307 ] } },
{ "type": "Feature", "properties": { "NOME": "BR-NAT-MU-096", "ENDERECO_A": "Rua Raimundo Chaves", "ENDERECO_B": "Rua Nelson Geraldo Freire", "BAIRRO": "Candelária", "PONTO_DE_R": "Canteiro Central em frente ao Cond. West Park Boulevard", "LATITUDE": 9355348.53, "LONGITUDE": 253446.006 }, "geometry": { "type": "Point", "coordinates": [ -35.226599996099615, -5.827759996833166 ] } },
{ "type": "Feature", "properties": { "NOME": "BR-NAT-MU-097", "ENDERECO_A": "Av. Nevaldo Rocha (Antiga Av. Bernardo Vieira)", "ENDERECO_B": "Rua dos Tororós", "BAIRRO": "Alecrim", "PONTO_DE_R": "RN Decorações", "LATITUDE": 9357523.873, "LONGITUDE": 254404.641 }, "geometry": { "type": "Point", "coordinates": [ -35.217869996892375, -5.808130001521672 ] } },
{ "type": "Feature", "properties": { "NOME": "BR-NAT-MU-098", "ENDERECO_A": "Av. Pres. Bandeira, 882", "ENDERECO_B": "Rua Pres. Gonçalves", "BAIRRO": "Alecrim", "PONTO_DE_R": "Canteiro Central, em frente a Comjol", "LATITUDE": 9358008.831, "LONGITUDE": 254794.944 }, "geometry": { "type": "Point", "coordinates": [ -35.214329996208626, -5.803759999665994 ] } },
{ "type": "Feature", "properties": { "NOME": "BR-NAT-MU-099", "ENDERECO_A": "Av. Industrial João Francisco da Mota", "ENDERECO_B": "Rua Presidente Castelo Branco", "BAIRRO": "Bom Pastor", "PONTO_DE_R": "Canteiro Central em frente a Pinheiro Pneus", "LATITUDE": 9357257.702, "LONGITUDE": 251429.821 }, "geometry": { "type": "Point", "coordinates": [ -35.244730003519365, -5.810429996563619 ] } },
{ "type": "Feature", "properties": { "NOME": "BR-NAT-MU-100", "ENDERECO_A": "Av. Engenheiro Roberto Freire, 67", "ENDERECO_B": "Rua Prof. Manoel Vilar", "BAIRRO": "Capim Macio", "PONTO_DE_R": "Canteiro Central em frente a Cirne Pneus", "LATITUDE": 9352622.005000001, "LONGITUDE": 256071.251 }, "geometry": { "type": "Point", "coordinates": [ -35.202999997665671, -5.852500000786985 ] } },
{ "type": "Feature", "properties": { "NOME": "BR-NAT-MU-101", "ENDERECO_A": "Av. Praia de Ponta Negra, 8909", "ENDERECO_B": "Av. Eng. Roberto Freire", "BAIRRO": "Ponta Negra", "PONTO_DE_R": "Canteiro lateral, próximo ao Bar Curió", "LATITUDE": 9350788.034, "LONGITUDE": 258375.974 }, "geometry": { "type": "Point", "coordinates": [ -35.182259996603193, -5.869160000669652 ] } },
{ "type": "Feature", "properties": { "NOME": "BR-NAT-MU-102", "ENDERECO_A": "Av. Eng. Roberto Freire 1361", "ENDERECO_B": "Rua Américo Soares Wanderley", "BAIRRO": "Capim Macio", "PONTO_DE_R": "Canteiro Central em Frente a COMJOL", "LATITUDE": 9352473.43, "LONGITUDE": 256266.808 }, "geometry": { "type": "Point", "coordinates": [ -35.201239999986115, -5.853849998147862 ] } },
{ "type": "Feature", "properties": { "NOME": "BR-NAT-MU-103", "ENDERECO_A": "Rua Raimundo Chaves 1021", "ENDERECO_B": "Travessa Santa Maria", "BAIRRO": "Candelária", "PONTO_DE_R": "Canteiro Lateral da Praça", "LATITUDE": 9354962.845000001, "LONGITUDE": 254332.716 }, "geometry": { "type": "Point", "coordinates": [ -35.218609998970564, -5.831278003652257 ] } }
]
}
